ID_STOP;STOP_NAME;LATITUDE;LONGITUDE
100101;Пр.Ветеранов-1;59.8416038827508;30.2539842396693
100102;Пр.Ветеранов-2;59.8420417837763;30.25008403131
100103;Ленинский пр.-1;59.8516834239607;30.2683847248898
100104;Ленинский пр.-2;59.8497096845857;30.2683477910985
100105;Автово;59.8672920598579;30.2611327749718
100106;Кировский завод;59.8797529383961;30.2616313811541
100107;Нарвская;59.9010643542386;30.274818591331
100108;Балтийская;59.9074279378188;30.2997858342371
100109;Пушкинская;59.9205142694969;30.3296781982105
100110;Владимирская;59.9276107242842;30.348374083357
100111;Пл. Восстания-1;59.9315849272904;30.3604957536555
100112;Пл. Восстания-2;59.9294900866043;30.3609241856343
100113;Чернышевская;59.9445750067292;30.3596528994706
100114;Пл.Ленина-1;59.9555863949925;30.3557692263356
100115;Пл.Ленина-2;59.9585630592083;30.3549694454614
100116;Выборгская;59.971158956837;30.3474265622214
100117;Лесная;59.9848462299829;30.3442651595776
100118;Пл. Мужества;59.9996134437551;30.366041164943
100119;Политехническая;60.008863753924;30.3706023848787
100120;Академическая;60.0128070664196;30.396228307148
100121;Гражданский пр.;60.0350363281555;30.4184994177378
100122;Девяткино;60.0506778791307;30.4432009973914
100200;Купчино-2;59.8294108511147;30.3771547402128
100201;Купчино-1;59.8302758312142;30.3767373883713
100202;Звездная;59.8333179325646;30.3491441529051
100203;Московская-2;59.8492384926523;30.3211501858036
100204;Московская-1;59.8532053864619;30.3217688268075
100205;Парк Победы;59.8663640733251;30.3215453773703
100206;Электросила;59.8791820868077;30.3189119980519
100207;Московские ворота;59.8917700537439;30.3180182003029
100208;Фрунзенская;59.9062691193159;30.3178150644509
100209;Технологический институт-1;59.9167248000597;30.3188769109504
100210;Технологический институт-2;59.9162809391697;30.3183967716636
100211;Сенная площадь;59.927171635864;30.3203948897719
100212;Невский пр.-1;59.9349808974143;30.3304944349977
100213;Невский пр.-2;59.9355285870474;30.3269340175182
100214;Горьковская;59.9563008079342;30.3189969457719
100215;Петроградская;59.9663077049433;30.3114070516637
100217;Пионерская;60.0024977103416;30.2966224550138
100218;Удельная;60.0167241651312;30.3152278523717
100219;Озерки;60.0372296870609;30.321635865159
100220;Пр. Просвещения;60.0522312658076;30.3332441557587
100221;Парнас;60.0671126894063;30.3341601137825
100230;Черная речка;59.9854607460386;30.3008809211485
100301;Приморская;59.948558526973;30.2344425707022
100302;Василеостровская;59.9427134003301;30.2783051412278
100303;Гостиный двор;59.9340770047094;30.3338018560069
100304;Маяковская;59.9315918666926;30.3551422006092
100305;Пл.Александра Невского-1;59.9242389869504;30.3853725087728
100306;Елизаровская;59.8965914291352;30.4237725715679
100307;Ломоносовская;59.8773109964002;30.4419255299826
100308;Пролетарская;59.8650383333602;30.47027590817
100309;Обухово;59.848572505274;30.4579788023629
100310;Рыбацкое;59.8304373164266;30.5008644741091
100402;Улица Дыбенко;59.9073621968998;30.4830494598846
100403;Пр.Большевиков;59.9196321966596;30.4669832606773
100404;Ладожская-1;59.9326100926283;30.4389874468861
100405;Новочеркасская;59.9288127511553;30.4111541417766
100406;Пл. Александра Невского-2;59.9235402582984;30.3837889724716
100407;Лиговский пр.;59.9208238687267;30.3549169044823
100408;Достоевская;59.9282358021993;30.3463390314572
100409;Спасская;59.9268727377876;30.3197559351826
100505;Международная;59.8704109616795;30.3789774228123
100506;Бухарестская;59.8842290573122;30.3692416754306
100507;Волковская;59.8962445543052;30.3573379145007
100508;Обводный канал;59.9146799359245;30.349736940255
100509;Звенигородская;59.922342205196;30.3357685803925
100510;Садовая;59.9264734316668;30.3182656567043
100511;Адмиралтейская;59.9359943936632;30.3150598036211
100512;Спортивная-1;59.9516975449968;30.2919724906912
100513;Чкаловская;59.9609866306347;30.2920463582738
100514;Крестовский остров;59.9717924205307;30.2594135069873
100515;Старая Деревня;59.9895383917864;30.2552178282978
100516;Комендантский пр.;60.0078102700019;30.2594762944325
100530;Спортивная-2;59.9477969616639;30.2836697744112
1282;10 КМ [145, 165, 482, 482а, 482в, 484, 484б];59.77337182476076;30.1251106
1285;12-13 ЛИНИИ (ПО СРЕДНЕМУ ПР. В.О.) [6];59.94112057347588;30.2717571
1287;18-19 ЛИНИИ [6];59.938797516478;30.2641411
1290;1-Я И КАДЕТСКАЯ ЛИНИЯ,УГ. СРЕДНЕГО ПР. [6];59.94453814792944;30.2870083
1291;1-Я КРАСНОАРМЕЙСКАЯ УЛ. [71];59.91596542482977;30.3104362
1292;ШУШАРСКАЯ ДОРОГА;59.76796955936776;30.3482895
1293;21 КМ [485];59.88336543849676;30.6802368
1294;22-23 ЛИНИИ [6];59.93734680629446;30.2591171
1295;25 КМ [435];60.12392089913464;30.2300968
1297;26 КМ [435];60.14115920717778;30.2086029
1299;28 КМ [482, 482а, 482в, 484, 484шК., 484б];59.68253836628228;29.8940887
1300;29 КМ [435];60.15527510122238;30.1910286
1301;ПОЛОЦКАЯ УЛ.;59.73362704066002;30.4702568
1302;30 КМ [555, 435];60.16484883657985;30.1836891
1303;31 КМ [435];60.17117202174958;30.179533
1304;36 КМ [555];60.1892140978964;30.0984745
1306;39 КМ,1 [555];60.19600447996184;30.057642
1307;39 КМ,2 [555];60.19610293016979;30.0498066
1308;3-Й ВЕРХНИЙ ПЕР.,УГ. ДОМОСТРОИТЕЛЬНОЙ УЛ. [113];60.06178749337684;30.3656101
1310;44 КМ;59.90786722848099;31.0453415
1311;4-Й ВЕРХНИЙ ПЕРЕУЛОК [113, 113];60.07133392043399;30.3500004
1312;5 КМ;59.74753208200862;30.511097
1313;50 КМ;59.89017444626454;31.1625404
1314;51 КМ;59.88855713341914;31.1847038
1316;54 КМ - 1;59.88860167910682;31.2297897
1319;56 КМ;59.89042800088583;31.2616062
1320;57 КМ;59.89069525906772;31.2766285
1321;5-Й ПРЕДПОРТОВЫЙ ПРОЕЗД,4 [3, 11];59.83811369740621;30.3107719
1322;5-Й ПРЕДПОРТОВЫЙ ПРОЕЗД,УГ. УЛ. КОСТЮШКО [3, 11];59.84123305217078;30.3098869
1323;5-Я КРАСНОАРМЕЙСКАЯ УЛ. [70, 71];59.91252436077552;30.3076916
1324;6 КМ;59.74886377126202;30.5367012
1326;6-Й ЛЕСОПИЛЬНЫЙ ЗАВОД [115, 115, А];59.82920013509971;30.5409412
1329;8 И 9 ЛИНИЯ ПО БОЛЬШОМУ ПР. [1];59.93911228483702;30.2800045
1333;"СТ. МЕТРО ""СТАРАЯ ДЕРЕВНЯ"" [93]";59.98937867715789;30.2559242
1335;АВАНГАРДНАЯ УЛ.;59.83294501426494;30.1835117
1336;АВИАГОРОДОК, АКАДЕМИЯ;59.81722468050597;30.2937775
1337;АВИАЦИОННАЯ УЛ. [3, 50];59.85378301295116;30.3216476
1338;АВИАЦИОННАЯ УЛ. [145, 165];59.75231146430189;30.1051273
1339;АВТОБУСНОЕ ПРЕДПРИЯТИЕ [3, 11];59.83380994940728;30.3110142
1340;АВТОВОКЗАЛ;59.91377756570075;30.3578339
1341;АВТОВСКАЯ УЛ. [72];59.86984952136197;30.2708015
1342;АГРОФИЗИЧЕСКИЙ ИНСТИТУТ [40];59.99955394675806;30.3842983
1343;АЛАРЧИН МОСТ [2, 6, 22];59.92072754288264;30.286274
1344;АЛЕКСАНДРИЯ [200, 210, 359];59.87510160324203;29.9439621
1345;АЛЛЕЯ ГОМОНТОВО [487, 487, 487а];59.57560650996589;29.2819271
1347;АННИНСКОЕ ШОССЕ [145, 165, 482, 482а, 482в, 484, 484б];59.7803649297378;30.1334229
1348;АНТАШИ [482, 482в, 487, 487, 487а];59.63506281131066;29.560358
1349;"АПРАКСИН ПЕР.,ТЕАТР ""ПРИЮТ КОМЕДИАНТА""";59.92953103987514;30.3246975
1350;АПРЕЛЬСКАЯ УЛ. [132];59.96489603095571;30.4183674
1351;АРСЕНАЛЬНАЯ УЛ. [106, 107, 133];59.95553767713777;30.3709393
1357;Б. КОНЮШЕННАЯ УЛ. [3, 27, 22, 24, 7];59.93609791297041;30.3214989
1359;БОЛЬШОЙ СМОЛЕНСКИЙ ПР.;59.89889355841181;30.419426
1360;БАЙКОНУРСКАЯ УЛ. [9, 85, 93, 134, 171, 172, 134];60.01718503447097;30.2804623
1361;БАЛТИЙСКИЙ ВОКЗАЛ;59.90793914504856;30.2999859
1362;БАССЕЙНАЯ УЛ. УГ. ПР. КОСМОНАВТОВ [72];59.86458632263904;30.3466644
1363;БЕГУНИЦЫ,1 [487, 487, 487а];59.58699445858768;29.3239975
1364;БЕГУНИЦЫ,2 [487, 487, 487а];59.58401037958036;29.3085499
1365;БЕЗЫМЯННАЯ УЛ. [20, 145, 165, 195, 482, 482а, 482в, 484, 484б, 487, 487];59.81899998379082;30.1792831
1366;БЕЛГРАДСКАЯ УЛ. [11, 31, 114, 116];59.85466798736659;30.3710442
1367;БЕЛГРАДСКАЯ УЛ. 6;59.87215683704945;30.35709
1369;БЕЛГРАДСКАЯ УЛ. УГ. УЛ. ТУРКУ [12, 95];59.86738089343261;30.3594646
1371;БЕЛОРУССКАЯ УЛ. ПО ХАСАНСКОЙ УЛ. [15, 174];59.9354340984728;30.4986706
1373;БЕСТУЖЕВСКАЯ УЛ. 32 [137, 106, 123, 136];59.98212189107977;30.4130497
1375;БЕСТУЖЕВСКАЯ УЛ. УГ. ЗАМШИНОЙ УЛ.;59.98306153637954;30.4085693
1376;БИОЛОГИЧЕСКИЙ ИНСТИТУТ;59.8959920097335;29.8439007
1377;"БКЗ ""ОКТЯБРЬСКИЙ""";59.93689515715116;30.3646107
1378;БОБЫЛЬСКАЯ ДОРОГА [351];59.88280338458471;29.8545418
1380;БОГАТЫРСКИЙ ПР.,УГ. КОЛОМЯЖСКОГО ПР. [93, 172];60.0006194535915;30.2967319
1381;БОЛЬНИЦА [200, 210, 351, 355, 356, 356Б, 359];59.87858424964328;29.9199829
1383;БОЛЬШАЯ МОНЕТНАЯ УЛ. [46А];59.96094375675198;30.3163986
1384;БОЛЬШАЯ ПОРОХОВСКАЯ УЛ. [123];59.95218279719146;30.4366322
1385;БОЛЬШАЯ ПОРОХОВСКАЯ УЛ. [132, 174];59.95282575665714;30.4216728
1388;БОЛЬШЕОХТИНСКОЕ КЛАДБИЩЕ [15];59.95310961245233;30.4406681
1391;БОЛЬШОЙ ПР. П.С.;59.96190793632782;30.3048744
1392;БОЛЬШОЙ САМПСОНИЕВСКИЙ ПР. [49, 33, 137];59.95904266801153;30.3468647
1393;БОЛЬШОЙ САМПСОНИЕВСКИЙ ПР.,70 [86];59.98096352798592;30.3365345
1394;БОЛЬШОЙ СМОЛЕНСКИЙ ПР. [8];59.89664976199158;30.4094505
1395;БОРОВАЯ УЛ. [145, 165];59.74399785866136;30.0974369
1397;БОТАНИЧЕСКАЯ УЛ. 17 [210, 356А-шк, 358, 359];59.8752730018565;29.8372097
1399;БРЕСТСКИЙ БУЛЬВАР [142, 2];59.85039039297553;30.1931286
1400;БУДАПЕШТСКАЯ УЛ.;59.82982488297703;30.4064693
1401;БУДАПЕШТСКАЯ УЛ. [11, 114, 116];59.85621149106581;30.3807983
1402;БУДАПЕШТСКАЯ УЛ.;59.86760376320139;30.3700104
1403;БУДАПЕШТСКАЯ УЛ. 19;59.86458975170414;30.3732605
1404;БУДАПЕШТСКАЯ УЛ. 33;59.86015910474757;30.3766308
1405;АЛЬПИЙСКИЙ ПЕР.;59.85246236782661;30.3831005
1406;БУДАПЕШТСКАЯ УЛ. 5;59.87256480043199;30.3671913
1407;БУДАПЕШТСКАЯ УЛ. УГ. М. БАЛКАНСКОЙ УЛ.;59.8263336965469;30.4093609
1408;БУДАПЕШТСКАЯ УЛ. УГ. ПР. СЛАВЫ [31];59.85686660099088;30.3791409
1409;БУДАПЕШТСКАЯ УЛ. УГ. УЛ. ДИМИТРОВА;59.84874369844563;30.3865528
1410;БУДАПЕШТСКАЯ УЛ.Д.104 [56];59.83190157054635;30.4036694
1411;БУЛЬВАР КРАСНОГО КУРСАНТА,49 [351];59.88206995847909;29.8671513
1412;БУЛЬВАР КРАСНЫХ ЗОРЬ;59.8724859507567;30.4472923
1413;БУЛЬВАР НОВАТОРОВ [114];59.84464376125744;30.2636223
1416;БУЛЬВАР ТРУДЯЩИХСЯ;59.73565120339301;30.5793285
1417;БУХАРЕСТСКАЯ УЛ.;59.85919539519067;30.3937035
1418;"СТ. МЕТРО ""МЕЖДУНАРОДНАЯ""";59.87146431631824;30.3809547
1419;БУХАРЕСТСКАЯ УЛ. 118 [56];59.84689106970734;30.4052525
1420;"СТ. МЕТРО ""МЕЖДУНАРОДНАЯ""";59.87188257313829;30.3798046
1421;БУХАРЕСТСКАЯ УЛ. УГ. УЛ. О. ДУНДИЧА [56];59.83359028546751;30.4187355
1424;"МАГАЗИН ""ГРАНАТ""";59.87453598154487;30.3763103
1425;ВАГОНОРЕМОНТНЫЙ ЗАВОД [8, 31, 95, 114, 116];59.88620983386051;30.4233437
1428;ВАРШАВСКАЯ УЛ. [72];59.86471319781235;30.3131714
1432;ВЕРБНАЯ УЛ. УГ. УЛ. РЕПИЩЕВА [9, 127, 40];60.0235434392362;30.280592
1434;ВЕСЕЛЬНАЯ УЛ. [7];59.92825447224969;30.246212
1436;ВИТЕБСКИЙ ПР.,109;59.82092283615527;30.3794518
1437;ВИТЕБСКИЙ ПР.,31 [72];59.8614039978315;30.3579369
1438;ВИТЕБСКИЙ ПР.,63 [72];59.84541232350914;30.3661442
1439;ВИТЕБСКИЙ ПР.,75 [72];59.84213208586535;30.3677864
1440;ВИТИНО,1 [482, 482а, 482в];59.65561389863558;29.7276745
1441;ВИТИНО,2 [482, 482а, 482в, 487, 487, 487а];59.65429919927006;29.7141037
1442;ВОЗНЕСЕНСКИЙ ПР.;59.9236577374537;30.3107243
1443;ВОКЗАЛ;59.72328399755737;30.4289036
1444;ВОКЗАЛЬНАЯ ПЛ.;59.74931453777236;30.6128502
1446;ВОЛХОНСКОЕ ШОССЕ,4;59.78425279234577;30.1977482
1447;ВОЛХОНСКОЕ ШОССЕ,7;59.78111778730303;30.206665
1448;ВЫСОКОВОЛЬТНАЯ ЛИНИЯ [476];59.84033056263195;30.5396309
1449;ГАККЕЛЕВСКАЯ УЛ. [154];59.99563313254995;30.251297
1450;ГАККЕЛЕВСКАЯ УЛ. УГ. БОГАТЫРСКОГО ПР. [172];60.00169858578614;30.2561302
1451;ГЕЛЬСИНГФОРССКАЯ УЛ. [86];59.9741902221491;30.3395405
1452;ГЛУХАРСКАЯ УЛ., УГ. ПР. АВИАКОНСТРУКТОРОВ [85, 127];60.02922503648644;30.2176514
1453;ГЛУХОВО,ЛЕСХОЗ [482, 482в, 482а, 487, 487, 487а];59.662942144453;29.7679806
1454;ГОМОНТОВО [487, 487, 487а];59.57286009915976;29.2671223
1455;ГОСТИЛИЦКОЕ ШОССЕ,УГ. ЧИЧЕРИНСКОЙ УЛ. [356, 356Б];59.86888952116491;29.849102
1458;"ГОСТИНИЦА ""ПРИБАЛТИЙСКАЯ""";59.93974523390552;30.2196255
1459;"ГОСТИНИЦА ""САНКТ-ПЕТЕРБУРГ"" [49]";59.95819808460328;30.3413868
1460;ГРАЖДАНСКАЯ УЛ. [145, 165, 482, 482а, 482в, 484, 484б, 487, 487];59.74754584651006;30.1022053
1461;ГРАЖДАНСКИЙ ПР. [123, 138];59.99645626884179;30.3794518
1462;ГРАЖДАНСКИЙ ПР. УГ. ПР. ЛУНАЧАРСКОГО [102, 103, 178, 93, 153];60.02617108611307;30.4096375
1463;ГРАЖДАНСКИЙ ПР. УГ. ПР. НЕПОКОРЁННЫХ [40];59.99679781315862;30.3815975
1464;ГРАЖДАНСКИЙ ПР. УГ. СЕВЕРНОГО ПР. [40];60.02293256671957;30.404192
1465;ГРАЖДАНСКИЙ ПР.,90 [93, 102, 103, 153, 178];60.01718503447097;30.40205
1466;ГРУЗОВОЙ ПРОЕЗД;59.84291443130834;30.4337997
14669;УГ. ДУНАЙСКОГО, И КУПЧИНСКОЙ УЛИЦЫ[50]<;59.8360545572388;30.3891506
1467;ГУСАРСКАЯ УЛ. [186];59.70111694426952;30.3964176
1468;ДАЛЬНЕВОСТОЧНОГО ПР.,УГ. ПР. БОЛЬШЕВИКОВ, [8];59.87703150059981;30.4793777
14689;ЖЕЛЕЗНОДОРОЖНЫЙ ПЕРЕЕЗД (210) [тест];59.87741883772463;29.8685436
1469;ДАЛЬНЕВОСТОЧНЫЙ ПР. [118, 140, 12];59.88367730577452;30.4687023
14690;ЖЕЛЕЗНОДОРОЖНЫЙ ПЕРЕЕЗД (210) [тест]<;59.87830318344855;29.8697224
14691;СОЛОМАХИНСКИЙ ПРОЕЗД;59.85392364999327;30.2423019
14692;"СТ.МЕТРО ""МОСКОВСКАЯ""";59.84842464195801;30.3212795
1470;ДАЛЬНЕВОСТОЧНЫЙ ПР.,УГ. УЛ. ТЕЛЬМАНА [12];59.89009563835295;30.4654675
14700;УЛ. ФАРФОРОВСКАЯ [95];59.88149417337394;30.4364643
14701;УЛ. ФАРФОРОВСКАЯ [95]<;59.88093551519654;30.4368706
14709;ТРАМВАЙНЫЙ ПРОСПЕКТ [20, 200, 210, 145, 482, 482а, 482в, 484, 484б, 229];59.85866722935599;30.2529259
1471;ДАЧНАЯ УЛ. [145, 165];59.76892903252683;30.1198883
14712;ШУШАРЫ;59.81260226734786;30.3802853
14713;АВИАГОРОДОК, ГРУЗОВОЙ СКЛАД [тест];59.80988896252852;30.3096714
14714;АВИАГОРОДОК, ГРУЗОВОЙ СКЛАД [тест] <;59.80974470469646;30.3086948
14715;УЛ .ЗЕНИТЧИКОВ [66, 72, 2, 20, 200, 229];59.87445713654413;30.2618408
14716;УЛ. КАЛИНИНА, 51[тест];59.81757837516529;30.0752354
14718;УЛ. КАЛИНИНА, 31[тест];59.81892787466852;30.0830021
14719;УЛ. КАЛИНИНА, 31[тест]<;59.81917510529526;30.0827446
1472;ДАЧНЫЙ ПР. [130, 145];59.84531625419812;30.2509594
14720;ВОЛЬНОВСКАЯ УЛ.[тест];59.8236421093461;30.087326
14721;ВОЛЬНОВСКАЯ УЛ.[тест]<;59.82297604527522;30.0880013
14723;НЕВСКИЙ ПР. [49,58] [тест];59.93461286627568;30.3355007
14725;ДМИТРИЕВСКАЯ УЛ.[тест];59.82540333831969;30.0827446
1473;ДВИНСКАЯ УЛ. 15 [22, 49, 65, 66, 70, 70, 71, 71];59.90907266656024;30.2421074
14739;УЛИЦА ЗДОРОВЦЕВА;59.82467207911436;30.1630421
1474;ДВИНСКАЯ УЛ. 9 [22, 49, 65, 66, 70, 70, 71, 71];59.90903842176424;30.2487812
14740;УЛИЦА ЗДОРОВЦЕВА;59.82443175568328;30.1641998
14741;ПРОСПЕКТ ВЕТЕРАНОВ, УГОЛ УЛИЦЫ ПОГРАНИЧНИКА ГАРЬКАВОГО [68, 163, 229];59.83554318435924;30.1458836
14742;ТК КОНТИНЕНТ;59.85973727090377;30.2473125
14743;УЛ. ПОГРАНИЧНИКА ГАРЬКАВОГО,11 [229] <;59.84143550844144;30.146677
14744;КОНСТАНТИНОВСКАЯ УЛ. [354, 355][тест];59.87244138346619;29.9140396
1475;"ДВОРЕЦ СПОРТИВНЫХ ИГР ""ЗЕНИТ"" [178]";60.00355283515151;30.3981056
1476;ДВОРЕЦ ТВОРЧЕСТВА ЮНЫХ [7, 3, 27, 22, 24];59.93358971938257;30.3392773
1477;ДВОРЦОВАЯ НАБ. [7, 24];59.93877014517516;30.3113308
14772;ОРАНИЕНБАУМСКИЙ СПУСК [200, 348, 349] [тест];59.89209318991062;29.8745747
14777;Г. ЛОМОНОСОВ, ВОКЗАЛ;59.9178552903339;29.7685299
14778;ЛЕНИНСКИЙ ПР. [20, 83, 200, 210, 229]< [тест];59.85267504668604;30.2395668
1478;ДЕГТЯРНАЯ УЛ. [15];59.93616292501614;30.3755207
1479;ДЕР.НОВОСАРАТОВКА,166 [476];59.8426090442661;30.5277596
14792;ТОРГОВЫЙ ЦЕНТР;59.83785631184912;30.2315655
14793;ТОРГОВЫЙ ЦЕНТР;59.8377842435366;30.2321568
14794;"СТ. МЕТРО ""КУПЧИНО""";59.82988323794957;30.3743916
14797;КОККОЛЕВСКАЯ УЛ.;59.75976992595987;30.3708744
14798;КОККОЛЕВСКАЯ УЛ.;59.76024462406731;30.3701801
1480;ДЕР.НОВОСАРАТОВКА,40 [476];59.85395452145955;30.5052681
1481;ДЕР.НОВОСАРАТОВКА,ПОКРОВСКАЯ ДОРОГА [476];59.84709006070028;30.5147762
14810;"А.С. ""УЛ. ГРИБАКИНЫХ""";59.85973727090377;30.4694614
14811;ЗАГРЕБСКИЙ БУЛЬВАР;59.8316990562996;30.4138489
14813;УЛ. ЗЕНИТЧИКОВ [66, 72, 2, 20, 200, 229] [тест]<;59.87369952939835;30.2624111
14819;ПРОЛЕТАРСКАЯ УЛИЦА, УГОЛ БУЛЬВАРА ТРУДЯЩИХСЯ;59.74199485146496;30.5686417
1482;ДЕР.НОВОСАРАТОВКА,ШКОЛА [476];59.84389919965367;30.5235214
14820;ПРОЛЕТАРСКАЯ УЛИЦА, УГОЛ БУЛЬВАРА ТРУДЯЩИХСЯ;59.74180211591948;30.5703697
14821;УЛИЦА ТАНКИСТОВ;59.74231148601984;30.5601273
14822;ЗАГРЕБСКИЙ БУЛЬВАР [тест];59.84215267413888;30.4083405
14823;ЗАГРЕБСКИЙ БУЛЬВАР [тест]<;59.84084186199059;30.4049282
14824;БУДАПЕШТСКАЯ УЛ. [тест];59.83879318571716;30.3955879
14825;БУДАПЕШТСКАЯ УЛ. [тест]<;59.83883093466119;30.3973713
14826;ГАТЧИНСКОЕ ШОССЕ, 9 [145А];59.71905496157368;30.0797291
14827;ГАТЧИНСКОЕ ШОССЕ, 9 [145А] <;59.71916172720331;30.0802689
14828;СТ.МЕТРО «УДЕЛЬНАЯ»;60.01799056832925;30.3158283
1483;ДЕР.ЩЕРБИНКА [476];59.78850451604603;30.682785
14830;ФРОНТОВАЯ УЛ.;59.85248981033646;30.0370178
14831;КУПЧИНСКАЯ УЛ., УГ. ДУНАЙСКОГО ПР. [тест];59.83687479666482;30.3896332
14832;БУХАРЕСТСКАЯ УЛ. [тест];59.84205316403222;30.4083405
14833;БУХАРЕСТСКАЯ УЛ. [тест]<;59.8422110075114;30.4104004
1485;УЛ. ГЕНЕРАЛА ХАЗОВА;59.73717612940939;30.3937035
1486;ДНЕПРОПЕТРОВСКАЯ УЛ.;59.9077028471702;30.3555737
14869;ВОЛКОВИЦЫ [484] [тест];59.64887767671301;29.8223648
1487;ДНЕПРОПЕТРОВСКАЯ УЛ. 65;59.91027121216729;30.3572788
14870;ВОЛКОВИЦЫ [484] [тест] <;59.64853599826674;29.8225594
14872;ДОРОГА НА РУССКО-ВЫСОЦКУЮ ПТИЦЕФАБРИКУ [тест]<;59.69880810863358;29.9621525
14873;РУССКО-ВЫСОЦКОЕ, ПАМЯТНИК [тест];59.69388665598462;29.9336758
14874;РУССКО-ВЫСОЦКОЕ, ПАМЯТНИК [тест]<;59.69350407579623;29.9326591
14877;КРАСНОСЕЛЬСКОЕ ШОССЕ, 65;59.70372883800627;30.3596344
1488;ДОЛГООЗЕРНАЯ УЛ. [127];60.01728402062159;30.2486172
14880;СТРЕЛЬНА, Ж/Д СТ. [тест] <;59.84604019824955;30.03335
14881;УЛ. СВЯЗИ [тест];59.84807470551917;30.0085487
14882;БСХ, БЫТОВЫЕ ПРИБОРЫ;59.84043350944289;29.9968796
1489;ДОМ ВЕТЕРАНОВ [40];60.01902817623535;30.3037987
1490;ДОРОГА В БУЯНИЦЫ [487, 487, 487а];59.55948111298269;29.1969376
14902;Пять углов (3, 8, 15);59.92630359037007;30.3430233
14903;"Метро ""Приморская"" (10)";59.94880363497601;30.2315998
14904;"Гостиница ""Выборгская"" (6, 34)";59.98707950046693;30.3041668
14906;Улица Нахимова / Наличная улица (9, 10, 11);59.94240348806734;30.2311993
14907;Владимирская площадь (3, 8, 15);59.92951735040246;30.3477917
14908;Набережная реки Смоленки (10);59.94680265285992;30.2304993
14909;Невский проспект (3, 8, 15);59.93339124576168;30.3481503
1491;"ДОРОГА В ДЕР. ""РЫЖИКИ"" [485]";59.90478836839545;30.6710606
14911;Переулок Талалихина (7);59.95040091349155;30.2966423
14912;"Метро ""Чёрная речка"" (6)";59.98723323940401;30.3025074
14913;Улица Жуковского (3, 8, 15);59.93527669721024;30.3482819
14914;Малый проспект В.О. (10, 11);59.93700464841739;30.2336006
14916;Улица Некрасова (3, 8, 15);59.93993340562312;30.3485451
14917;Биржевой мост (7);59.94883441837285;30.3019562
14918;Ланское шоссе (6, 34);59.9916537824388;30.3079472
14919;Шкиперский проток (10, 11);59.93310379910176;30.235302
1492;"ДОРОГА В ДЕР.""ТРУДОВИК"" [482, 482а, 482в, 487, 487]";59.659937205331;29.7514057
14920;Улица Пестеля (3, 8, 15);59.94245138258426;30.3487206
14922;Омская улица (6, 34);59.99495001634319;30.3180695
14923;Тульская улица (7, 16, 33);59.94425763957327;30.3878975
14924;Средний проспект (10, 11);59.9307014689;30.2364998
14927;Студенческая улица (6, 34);59.99662704144094;30.3234138
14928;Большой проспект В.О. (10, 11);59.92694362917472;30.2416496
1493;ДОРОГА В НЕГОДИЦЫ [487, 487, 487а];59.56025624978295;29.2242184
14930;Улица Красного Текстильщика (7, 16, 33);59.9426771700893;30.3935642
14931;Проспект Энгельса (6, 34);59.99778144109118;30.3318901
14932;Вёсельная улица (10, 11);59.92816548715218;30.2459011
14934;Новочеркасский проспект (7, 18, 33);59.94118557567565;30.4083996
14935;Институтский проспект (6);59.99576633856697;30.3464012
14936;Финляндский вокзал (3, 8);59.95557187396153;30.3536167
14937;Улица Помяловского (7, 18, 33);59.93591998461461;30.4075661
14938;Улица Карбышева (6);59.99446841094066;30.3550987
14939;Политехническая улица (6);59.99430445856591;30.3606014
1494;"ДОРОГА В ПОС.""КРАСНАЯ ЗВЕЗДА"" [476]";59.80068955913477;30.6382923
14940;Республиканская улица (7, 18, 33);59.93320303692067;30.4075012
14943;Площадь Мужества (6);59.99790097721499;30.3660011
14944;"Метро ""Новочеркасская"" (7, 18, 33)";59.92796013601622;30.4123459
14946;Улица Михайлова (3, 8, 38, 43);59.95442626115535;30.3628864
14948;Таллинская улица (7, 18);59.92503374421472;30.4155807
14949;Областная больница (3, 8, 38, 43);59.9550349797564;30.3670902
1495;ДОРОГА К ШКОЛЕ [476];59.80705864722503;30.6198177
14952;Агрофизический институт (6, 31);59.99948222871921;30.384203
14954;Арсенальная улица (3, 8, 38, 43);59.95578047382229;30.3718224
14955;Политехнический университет (6, 31);60.0040308936391;30.388752
14956;"Завод ""Красный Выборжец"" (3, 38)";59.9598735529482;30.3759308
14957;Улица Гидротехников (6, 31);60.00670447907604;30.3915424
1496;ДОРОГА НА ЕЛИЗАВЕТИНКУ [555, 435];60.18169550655329;30.1321754
14960;Улица Верности (6, 31);60.01018357248459;30.3950005
14961;Улица Жукова (3, 38, 43);59.96849232747176;30.3845673
14964;Площадь Калинина (3, 38, 43);59.97186264635955;30.3879223
14965;"Метро ""Академическая"" (6, 31)";60.01366571355916;30.3985691
14968;Литейный проспект (1, 5, 7, 10, 11, 22);59.93238174948029;30.3493099
14969;Замшина улица (3, 43);59.97138412298703;30.3981133
1497;1-Й БАДАЕВСКИЙ ПРОЕЗД;59.7987517958307;30.4041805
14970;Северный проспект (6, 31);60.02077565277147;30.4056396
14971;Проспект Металлистов, 110 (3, 43);59.97023222051494;30.4029789
14974;Улица Есенина (13);60.05778201118014;30.34692
14975;Проспект Луначарского (6, 38);60.02622568435184;30.4113426
14977;Пискарёвский проспект (3, 43);59.96898456581613;30.4089546
14978;Гражданский проспект, 110 (6, 38);60.03050454072481;30.4155598
14979;Сиреневый бульвар (13);60.05510914667271;30.3447895
14980;"Гостиница ""Карелия"" (3, 16)";59.9687726307591;30.4265194
14984;Проспект Просвещения (13);60.05090508382338;30.3413219
14985;Улица Кораблестроителей (9, 11);59.94030290334337;30.2180004
14987;"Метро ""Гражданский проспект"" (6, 38)";60.03615765028222;30.4213276
14988;Боцманская улица (9, 11);59.94350162352723;30.2151012
14989;Поэтический бульвар (13);60.04561600103973;30.3370686
14990;Гражданский проспект, 131 (6, 38);60.03976667348994;30.4251423
14991;Проспект Бакунина (10);59.92950366092413;30.3712006
14992;Мичманская улица (9, 11);59.94650506058698;30.2150021
14993;Проспект Луначарского (13);60.04199056323856;30.3340588
14994;5-я Советская улица (10);59.93200189716159;30.3757973
14995;Новосмоленская набережная (9, 11);59.95110204998671;30.2175999
14996;Учебный переулок (13);60.03898213677302;30.3315582
14997;8-я Советская улица (10);59.93460260074454;30.3792
14998;Капитанская улица (9, 11);59.95460750999765;30.2196941
14999;Улица Сикейроса (13);60.03453380233195;30.3286228
1500;ДОРОГА НА КЕЛОЗИ [484, 484б, 484шК.];59.66920990500086;29.8232632
15000;Новгородская улица (оборотная, 10);59.93270342281704;30.3834991
15001;Улица Кораблестроителей, 35 (9, 11);59.95618057152;30.2253876
15002;Северный проспект (13);60.03011216469276;30.3295002
15003;Мытнинская улица (10);59.93460260074454;30.3784008
15005;5-я Советская улица (10);59.93300113897665;30.3766003
15006;Улица Кораблестроителей (конечная, 9, 10, 11);59.95656356650019;30.2344208
15007;Проспект Тореза (13);60.02522242731398;30.3250904
15008;Проспект Бакунина (10);59.92920249097161;30.3721981
15009;Рашетова улица (13);60.02087462817005;30.330862
1501;ДОРОГА НА КИПЕНСКУЮ П/ФАБРИКУ [482, 482а, 482в];59.66996526867273;29.8185291
15010;Сызранская улица (конечная, 15);59.87900241690078;30.3342972
15012;Улица Шотмана. Универ.телекоммуникаций (14, 27, 28);59.90247304195164;30.486372
15013;Дрезденская улица (13);60.01643750879698;30.3378601
15014;Московский рынок (15);59.87900241690078;30.3238983
15016;Улица Крыленко (14, 27, 28);59.89941423453912;30.4892311
15017;Манчестерская улица (13);60.01277814379671;30.3435497
15019;Проспект Большевиков, 33 (14, 27, 28);59.89508757911244;30.4912453
1502;ГОФМЕЙСТЕРСКАЯ УЛ.;59.8618532453283;29.9909992
15020;Заставская улица (15, 17, 24, 26);59.88834468393324;30.3200397
15021;Светлановский проспект (13);60.01029282169828;30.347599
15022;Улица Тельмана (14, 27, 28);59.89177454908516;30.4903755
15024;Детская музыкальная школа (15, 17);59.89454970528643;30.3195686
15025;Институтский проспект (13);60.00584062389202;30.3553104
15026;Народная улица (14, 27, 28);59.8848527792106;30.4867554
15028;Трамвайный парк № 1 (15, 17);59.89762266332643;30.3194313
15029;Правобережные бани (14, 27, 28);59.88375270181999;30.4783802
1503;"ДОРОГА НА П/ФЕРМУ ""ЛАГОЛОВО"" [482а, 482в, 484, 484б, 482]";59.71127392971827;30.0209599
15030;Проспект Тореза, 21 (13);60.00222106435773;30.3598728
15031;Дальневосточный проспект (14, 27, 28);59.88175122152837;30.4688873
15032;Детская улица (10, 11);59.92940441203728;30.2495995
15033;Смоленская улица (15, 17);59.9042027019587;30.3188992
15034;Госпиталь (14, 27, 28);59.88006152191213;30.4621391
15036;Набережная Обводного канала (15, 17);59.90934319920676;30.3185997
15036;Набережная Обводного канала (15, 17);59.91020272501248;30.3185997
15037;5-я Красноармейская улица (15, 17);59.91141150253577;30.3185005
15037;5-я Красноармейская улица (15, 17);59.91320232996988;30.3184013
15037;Малодетскосельский пр. (15, 17);59.91141150253577;30.3185005
15038;Улица Академика Байкова (13, 40);60.02489141405776;30.3828201
15039;Технологический институт (15, 17);59.91499306079804;30.3183899
1504;ДОРОГА НА ПЕТРОВСКУЮ ДАЧУ [476];59.79711285493566;30.6644077
15040;Проспект Луначарского (13, 40);60.03128245508032;30.3923416
15041;"Метро ""Ломоносовская"" (14)";59.87753880848505;30.4428329
15042;Вёсельная улица (10, 11);59.92790195296327;30.2439995
15044;Учительская улица (13, 40);60.034291582876;30.3947487
15045;Наличная улица (10, 11);59.92726193264615;30.2387981
15046;Улица Седова, 80 (14);59.87616426040774;30.4336433
15048;Проспект Просвещения (13, 40);60.04019304432409;30.3995399
15049;Средний пр.В.О.;59.93160150757613;30.2368011
1505;ЛЕНСОВЕТОВСКАЯ ДОРОГА;59.7831287619066;30.4332886
15050;Улица Седова, 70 (14);59.87921492611406;30.4295006
15051;Тимуровская улица (13, 40);60.04449737595703;30.4030743
15052;Шкиперский проток (10, 11);59.93430147708413;30.235302
15053;Железнодорожный проспект (14);59.88335858423801;30.4244633
15054;Суздальский проспект (13, 40);60.0463151224724;30.4049091
15055;Малый проспект В.О. (9, 10, 11);59.93840405182764;30.2334976
15056;Потемкинская ул. (15);59.94370345755215;30.3691998
15057;Светлановский проспект (13, 40);60.04669366497299;30.4041405
15058;Улица Крупской (14);59.88633319971719;30.4233322
15059;"Метро ""Приморская"" (10)";59.94870444383614;30.2325001
1506;ДОРОГА НА РУССКО-ВЫСОЦКУЮ П/Ф-КУ [484б, 482а, 482в, 484, 482];59.69780871249349;29.9615955
15060;Музей Суворова (15);59.9436008302354;30.3742008
15061;Тимуровская улица (13, 40);60.04404036578188;30.4019547
15062;Улица Ткачей (14);59.89045198568228;30.4186707
15063;Универсам (10);59.95143722219343;30.2337093
15065;Проспект Просвещения (13, 40);60.03945286103949;30.3982697
15066;Проспект Елизарова (14);59.89278528096094;30.4150543
15067;Кирочная улица (15);59.94260190775847;30.3808022
15068;Учительская улица (13, 40);60.0337354948706;30.3935661
15069;Большой Смоленский проспект (14);59.89598515807894;30.4102116
1507;ДОРОГА НА ТУРУХТАННЫЕ ОСТРОВА [2];59.8695340957828;30.247818
15070;Уральская улица (9, 10, 11);59.95610533984304;30.2364998
15071;Музей Суворова (15);59.94370345755215;30.3761024
15072;Проспект Луначарского (13, 40);60.03055571986373;30.390913
15073;Невский завод (14);59.89861608951019;30.4061546
15074;"Центр ""Ленинград"" (15)";59.94550280489268;30.3677006
15075;Улица Академика Байкова (13, 40);60.02490506415449;30.3821507
15076;Площадь Бехтерева (14);59.90059600204059;30.4026928
15078;Улица Седова, 12 (14, 16);59.90196268941111;30.3990097
15079;Проспект Чернышевского (15);59.94650506058698;30.3584023
1508;ДРЕЗДЕНСКАЯ УЛ. [40, 86];60.01359402611671;30.3237667
15081;Троллейбусный парк N 3 (14, 16);59.90416845213979;30.3902779
15082;Литейный проспект (15);59.94663162314448;30.3507614
15083;Проспект Металлистов (3, 43);59.97365362961254;30.3908005
15084;Улица 2-й Луч (14, 16);59.90893911165617;30.3984852
15085;Проспект Тореза (13);59.99983740224708;30.3632507
15086;Шоссе Революции (16, 18);59.95910421575842;30.4222813
15087;Фаянсовая улица (14);59.91136698743021;30.3972626
15088;Улица Передовиков (1, 22);59.94180137966718;30.4666023
15089;Проспект Тореза, 21 (13);60.00271280135669;30.3596687
15091;Институтский проспект (13);60.00675228068032;30.3544197
15092;Улица Профессора Качалова (14, 16);59.91596200106274;30.39888
15093;Светлановский проспект (13);60.01029282169828;30.3480301
15094;Большая Пороховская улица (16, 18);59.95289415586627;30.4217014
15095;Манчестерская улица (13);60.01340285884363;30.3430672
15096;Улица Александра Невского (14, 16);59.92661505464618;30.3874168
15097;"Объединение ""Луч"" (16, 18)";59.949480863103;30.4210987
15098;5-я Красноармейская улица (15, 17);59.91305509541274;30.3181095
15099;Дрезденская улица (13);60.01679250026579;30.337719
1510;ДУНАЙСКИЙ ПР. [13, 13А, 39, 90, 187];59.83441058559491;30.3218498
15100;Набережная Обводного канала (15, 17);59.91009314527089;30.318161
15101;Рашетова улица (13);60.02189166854326;30.3296299
15102;Шепетовская улица (16, 18);59.94620404499552;30.4204788
15103;"Метро ""Фрунзенская"" (15, 17)";59.90550416890197;30.3181992
15104;Индустриальный просп. (1, 22);59.94482207470234;30.4792252
15106;Улица Есенина (13);60.02583666993222;30.3256893
15107;Якорная улица (16, 18);59.94285164119918;30.4186611
15108;Киевская улица (15, 17);59.9021031227715;30.3184013
15109;Северный проспект (13);60.03140187013602;30.3295231
1511;ДУНАЙСКИЙ ПР.;59.83570105870366;30.380003
15110;Александро-Невская Лавра (14, 16);59.92360981579197;30.3886147
15111;Улица Сикейроса (13);60.0353320905015;30.3289814
15112;Улица Профессора Качалова (14, 16);59.91701308095572;30.3996792
15113;Учебный переулок (13);60.03963023366048;30.3324604
15114;Финляндский мост (16);59.91181213579972;30.4000244
15115;Трамвайный парк № 1 (15, 17);59.8981022520902;30.3185997
15116;Фаянсовая улица (14, 16);59.91248327128842;30.3975086
15117;Детская музыкальная школа (15, 17);59.89350476627288;30.3191013
15118;Проспект Луначарского (13);60.04301036443478;30.3352089
15119;Улица Книпович (14);59.90829530099199;30.3972588
1512;ДУНАЙСКИЙ ПР., УГ. СОФИЙСКОЙ УЛ.;59.84591325185289;30.4309006
15120;Улица Книпович (16);59.90950414796326;30.4025803
15121;Хрустальная ул. д.31 (16);59.90583637729176;30.4053841
15122;Московские ворота (15, 17, 24, 26);59.89057190940474;30.3190804
15123;Поэтический бульвар (13);60.04612414442862;30.3377514
15124;Улица Осипенко (1, 22);59.9450136383802;30.4858017
15125;Троллейбусный парк N 3 (14);59.90356222449896;30.390667
15128;"Метро ""Электросила"" (17, 24, 26)";59.8793040424766;30.3194599
15129;Проспект Просвещения (13);60.05181890782757;30.342392
1513;ДУНАЙСКИЙ ПР.,ПО БУХАРЕСТСКОЙ УЛ. [56];59.84302423270623;30.4091396
15130;Улица Седова, 12 (14);59.90195241377607;30.3980923
15131;Московский рынок (15, 36, 39);59.87886188586832;30.3248215
15132;Якорная улица (16, 18);59.94251296114721;30.4142017
15133;Сиреневый бульвар (13);60.05560350655103;30.3454342
15134;Улица Севастьянова (15, 36, 39);59.87890301696371;30.3289013
15135;Красногвардейская площадь (16, 18);59.94309453082342;30.4132996
15136;Площадь Бехтерева (14);59.90095908737931;30.3999023
15137;Придорожная аллея (13);60.05781951156578;30.3472214
15138;Проспект Металлистов (16, 18);59.94365556484384;30.4200516
15139;Невский завод (14);59.89823927617944;30.4064255
1514;ДУНАЙСКИЙ ПР.,УГ. ПР. КОСМОНАВТОВ [116, 186];59.83244389076976;30.3603001
15140;Казанский собор (к/ст, 17);59.93350417055368;30.324749
15141;Шепетовская улица (16, 18);59.94715497129267;30.4209995
15142;"Объединение ""Луч"" (16, 18)";59.95033592935805;30.4216022
15143;Большой Смоленский проспект (14);59.89667716805304;30.4094677
15144;Большая Пороховская улица (16, 18);59.95398168432567;30.4221001
15145;Проспект Елизарова (14);59.89414543769739;30.4135895
15146;Гороховая улица (17);59.92990407583137;30.3198013
15147;Шоссе Революции / проспект Металлистов (16, 18, 43);59.95993167992116;30.4226189
15148;Улица Крупской (14);59.88856398660575;30.4208221
15149;Садовая улица (17);59.92811072697354;30.3224812
1515;ЕГИПЕТСКИЕ ВОРОТА [187];59.72867283294671;30.3954105
15150;Железнодорожный проспект (14);59.88340313689461;30.424757
15151;Варфоломеевская улица (14);59.88145647281079;30.4260693
15152;Загородный проспект (17);59.92250417537839;30.330801
15153;Улица Седова, 70 (14);59.87865965724241;30.4300842
15154;Авангардная улица (конечная, 20, 46);59.8336040145062;30.1828003
15155;Благодатная улица (17);59.87594487590426;30.3190022
15156;Улица Полярников (14, 28);59.87565007569798;30.4355927
15157;Варшавская улица (17);59.87585232263266;30.3128986
15158;Проспект Маршала Жукова (20, 37);59.83294501426494;30.1962395
1516;ЕРМАК,1 [476];59.81779814471307;30.5974369
15160;Новоизмайловский проспект (17);59.87510160324203;30.3057003
15162;Улица Генерала Симоняка (20, 37);59.8331029009273;30.2052002
15163;Кузнецовская улица (17);59.87127232781945;30.3054981
15164;"Универсам ""Таллинский"" (20, 37)";59.83325392225174;30.2131405
15165;Ивановская улица / улица Бабушкина (14, 27, 28);59.87586260634222;30.4464016
15166;Бассейная улица (17);59.86425370164384;30.3052006
15167;Улица Солдата Корзуна (20, 29, 37);59.83377219477074;30.2188606
15168;Новоизмайловский проспект, 45 (17);59.86050205514996;30.3050003
15169;Госпиталь (14, 27, 28);59.87952340481271;30.461401
1517;ЕРМАК,2 [476];59.81479335737178;30.6035004
15170;Улица Козлова (20, 29, 37);59.83506269261844;30.2233715
15171;Новоизмайловский проспект, 79 (17);59.8564035665165;30.3048019
15173;Дальневосточный проспект (14, 27, 28);59.88200826769491;30.4711895
15174;Торговый центр (20, 29, 37);59.83789406185534;30.2323513
15175;Площадь Конституции (17);59.85340226090295;30.3046989
15177;Правобережные бани (14, 27, 28);59.88365331608782;30.4799099
15178;Краснопутиловская улица (17);59.85040411508764;30.3077011
15181;Варшавская улица (17);59.84800265932503;30.3122025
15182;Проспект Большевиков (14, 27, 28);59.88446210169008;30.4858704
15183;Улица Маршала Тухачевского (3, 16);59.97037236509286;30.4223213
15184;"Ст. метро ""Проспект Ветеранов"" (20, 29, 37)";59.84270169006933;30.2455025
15185;Улица Тельмана (14, 27, 28);59.89279213327551;30.4912052
15186;Варшавская улица, 75 (17);59.84410507088731;30.3139
15187;Проспект Большевиков, 33 (14, 27, 28);59.8951835047396;30.4917202
15188;Улица Крыленко (14, 27, 28);59.90082549983887;30.4885311
15189;Дачный проспект (20, 29);59.84537458202716;30.2514915
1519;Ж.Д.  СТ. ЛИГОВО;59.82402320187165;30.1807518
15190;Улица Костюшко (17);59.84140119390596;30.3115807
15191;Улица Костюшко (17);59.84126393541029;30.3099003
15192;Варшавская улица, 75 (17);59.84395066758145;30.3142471
15194;Краснопутиловская улица (17);59.84780367378816;30.3128986
15195;Площадь Конституции (17);59.85050360023116;30.3078003
15196;Новоизмайловский проспект (17);59.85350516729155;30.3050003
15197;Новоизмайловский проспект, 79 (17);59.85680486343328;30.3052006
15198;Новоизмайловский проспект, 45 (17);59.86090330263254;30.3053989
15199;Ж/д станция Ручьи (оборотная, 18);60.0044850428021;30.4386024
15200;Бассейная улица (17);59.86488122094565;30.3054981
15201;Кузнецовская улица (17);59.87180372184515;30.3058987
15202;Благодатная улица (17);59.87555409367137;30.3065605
15204;Варшавская улица (17);59.87563293607069;30.3141003
15205;Улица Прокофьева (21);60.06366904993379;30.3170013
15206;"Метро ""Электросила"" (15, 17, 24, 26)";59.8793040424766;30.3202991
15207;Гороховая улица (17);59.92230221231428;30.3315105
15208;Набережная реки Фонтанки (17);59.9257456855112;30.3261604
15209;Улица Композиторов (21);60.06279986594525;30.3189125
1521;Ж.Д. СТ. МУРИНО;60.03272564241102;30.431078
15210;Набережная реки Фонтанки (17);59.92583125435016;30.3258114
15211;Садовая улица (17);59.92880206759601;30.3216
15212;Казанская улица (17);59.93180341403953;30.3173008
15214;Большая Морская улица (17);59.93370264349885;30.3143978
15215;Проспект Просвещения (21);60.05680357696782;30.3152275
15216;Улица Симонова (21);60.05529666336025;30.3226395
15217;"Метро ""Проспект Просвещения"" (21)";60.05302593508796;30.3326073
15218;Улица Есенина (21);60.05112331275043;30.342371
15219;Улица Ивана Фомина (21);60.05003215368874;30.3478794
1522;Ж.Д. СТ. ПИСКАРЁВКА [178, 102, 123, 133, 137, 33, 106, 107, 132, 136, 103];59.9851730783159;30.4261303
15220;Проспект Просвещения (21);60.04925809086246;30.3534184
15221;Улица Ивана Фомина (21);60.0506357055021;30.3467808
15222;Улица Есенина (21);60.05173366412088;30.3412514
15223;"Метро ""Проспект Просвещения"" (21)";60.05332598021285;30.333622
15224;Улица Симонова (21);60.05580124842913;30.3213139
15225;Улица Композиторов (21);60.05760814519898;30.3149891
15226;Адмиралтейский проспект (17);59.93560518595442;30.3116016
15227;Улица Композиторов, 29 (21);60.06092166862693;30.3176804
15228;Улица Шаврова (2, 23, 50);60.02420548943694;30.2357006
15229;Улица Подводника Кузьмина (20, 29);59.84830113539972;30.2563992
1523;Ж.Д. СТ. ПР. СЛАВЫ [72, 116];59.85053104435636;30.3635883
15231;Ленинский проспект (20);59.852404052418;30.2565022
15232;Трамвайный проспект (20);59.85650303372483;30.2565022
15233;Комендантский проспект (2, 23, 50);60.02496307700267;30.2390823
15234;Универсам (2, 23, 50);60.0212022687543;30.2435017
15235;Улица Жени Егоровой (21);60.06405421041928;30.3164101
15236;Долгоозёрная улица (2, 23, 50);60.01710311467389;30.2482986
15237;Улица Жени Егоровой (21);60.06454161945584;30.31394
15238;Проспект Стачек (20);59.85928456521852;30.2547607
15239;Комендантский проспект, 22 (2, 23, 50);60.01330386107136;30.2527008
1524;Ж.Д. СТ. СОСНОВАЯ ПОЛЯНА;59.82589083553896;30.146492
15240;Комендантский проспект, 16 (2, 23, 50);60.01060349717694;30.2558022
15241;"Метро ""Автово"" (20)";59.86770319692409;30.2606983
15242;"Метро ""Комендантский проспект"" (2, 23, 50)";60.00870184437864;30.2581005
15243;Комсомольская площадь (20, 41, 46, 48);59.87370295752386;30.2588997
15244;Гаккелевская улица (23, 25);60.0066020468342;30.2581615
15245;"Метро ""Кировский завод"" (20, 41, 46, 48)";59.87920807099936;30.2606678
15246;Камышовая улица (23, 25);60.00450553058726;30.2570992
15247;Улица Шотмана. Универ.телекоммуникаций (14, 27, 28);59.9028498072514;30.4865704
15248;Улица Возрождения (20);59.88347510644452;30.2649879
15249;Богатырский просп. / Гаккелевская ул. (23, 25, 40);60.00069458418828;30.2551193
1525;Ж.Д. СТ. СТАРЫЙ ПЕТЕРГОФ [210, 356Б, 351, 356, 358, 359];59.87916351271931;29.862421
15251;Звёздная улица (24, 45);59.83568389848509;30.3688011
15252;Ситцевая улица (23, 25, 40);59.99681489028189;30.2550774
15253;Огородный переулок (20);59.88723101521254;30.2688026
15254;Улица Оптиков (23, 25, 40);59.99499441932522;30.2553101
15255;Проспект Космонавтов (24, 45);59.83502493940217;30.3601665
15256;Улица Трефолева (20);59.89074322825741;30.2723408
15259;Проспект Космонавтов, 74 (24, 45);59.83867307515601;30.3585835
15260;Администрация Кировского района (20);59.89410432546359;30.2754993
15261;"Метро ""Старая Деревня"" (23, 25, 40)";59.98970321375185;30.2552013
15262;"Метро ""Нарвская"" (20, об/ст)";59.90091455825886;30.2744694
15263;Улица Оптиков (23, 25, 40);59.99580390939789;30.2554989
15264;"Метро ""Нарвская"" (20)";59.90010274767434;30.2739029
15266;Администрация Кировского района (20);59.89450516757284;30.2751007
15267;Улица Уточкина (25, 50);60.00875647147837;30.2620182
15268;Богатырский проспект (23, 25);60.00190348032725;30.2562008
15269;Улица Трефолева (20);59.88994487487083;30.2709103
1527;Ж.Д. СТ., ЛЕНИНСКИЙ ПР. [130, 114];59.85178658888103;30.2894955
15270;Улица Орджоникидзе (24, 45);59.84343255347698;30.3565617
15271;Универсам (25, 50);60.0107229869684;30.2630348
15272;Камышовая улица (23, 25);60.00490503986116;30.2577991
15273;Огородный переулок (20);59.88670329453941;30.2677002
15274;Проспект Космонавтов, 50 (24, 45);59.84805755167757;30.3545227
15275;"Метро ""Комендантский проспект"" (25, 50)";60.00880085593045;30.261301
15276;Улица Возрождения (20);59.88300216083507;30.263998
15277;Комендантский проспект, 16 (2, 23, 50);60.0112043557546;30.2558022
15278;Улица Типанова / Проспект Космонавтов (24, 26);59.85336109825839;30.3522987
15279;"Метро ""Кировский завод"" (20, 41, 46, 48)";59.87962965792385;30.260601
1528;ЖЕЛЕЗНОДОРОЖНЫЙ ПЕРЕЕЗД [200, 200, 210, 229, 359, 210, 356Б, 187, 356];59.84905932120884;30.1242466
15280;Проспект Королёва (25, 50);60.01320144927086;30.2650299
15281;Комендантский проспект, 22 (2, 23, 50);60.01400025290193;30.2525005
15282;Поликлиника № 51 (24, 26);59.8570346637617;30.3507004
15283;Улица Маршала Новикова (25, 50);60.01251186822165;30.2702541
15284;Долгоозёрная улица (2, 23, 50);60.01720210106981;30.2488003
15285;Комсомольская площадь (20, 41, 46, 48);59.87490277974223;30.2581005
15286;Торговый центр (24, 26);59.86064266379299;30.3491402
15287;Универсам (2, 23, 50);60.02173126492554;30.2434025
15288;Проспект Сизова (25, 50);60.01195199976148;30.2744408
15289;Улица Зайцева (20);59.87041179432181;30.259409
1529;ЖЕЛЕЗНОДОРОЖНЫЙ ПР. [8];59.88322149876615;30.4248943
15290;Бассейная улица (24, 26);59.86464461669768;30.3466702
15291;"Метро ""Автово"" (20)";59.86835122321364;30.2599926
15292;Байконурская улица (25, 50);60.01143650273536;30.279171
15293;Проспект Юрия Гагарина (24, 26);59.86527212862425;30.3371048
15294;Улица Шаврова (2, 23, 50);60.02550225036708;30.2389011
15295;Улица Зины Портновой (20);59.85620463120779;30.2562008
15296;Серебристый бульвар (25, 50);60.01070591702464;30.2848434
15298;Спортивно-концертный комплекс (24, 26);59.8695512385542;30.3368702
15299;Улица Подводника Кузьмина (20, 29);59.84740569914545;30.2556
1530;РУСАНОВСКАЯ УЛ.;59.86255282476933;30.4951077
15300;Поликлиника № 102 (25, 50);60.00993434636495;30.2907486
15301;Кузнецовская улица (24, 26);59.87197513746122;30.3342094
15302;Коломяжский проспект (25, 50);60.00893742310166;30.2955742
15303;Дачный проспект (20, 29);59.8453025299882;30.2509022
15304;"Метро ""Пионерская"" (25, 40)";60.00174980954041;30.2979755
15305;Улица Севастьянова (24, 26);59.87192371286918;30.3302402
15306;"Ст. метро ""Проспект Ветеранов"" (20, 29, 37)";59.84277374773803;30.2452297
15307;Богатырский проспект (25);59.99997742153217;30.2985859
15308;Московский проспект (24, 26);59.87217397846878;30.32061
1531;"ЗАВОД ""КРАСНЫЙ ВЫБОРЖЕЦ"" [106, 107, 133]";59.96045139891208;30.3769932
15310;Торговый центр (20, 29, 37);59.83774306157369;30.2313366
15311;Администрация Московского района (15, 17, 24, 26);59.88465401402844;30.3202477
15312;Травматология (25);59.9957458453685;30.2949524
15313;Серебристый бульвар (25, 40);59.99902459566694;30.28339
15314;Улица Козлова (20, 29, 37);59.83484303694205;30.2220306
15315;Благодатная улица (24, 26);59.87517359076773;30.3197556
15316;Платформа Сортировочная (26,29,35,36,42);59.86690428999199;30.4241009
15317;Улица Солдата Корзуна (20, 29, 37);59.83365206609702;30.2174816
15318;Кузнецовская улица (24, 26);59.87163230534539;30.32267
15319;Софийская улица / Проспект Славы (26,27,29,36,42);59.8655018704672;30.413599
1532;ЗАВОД ИМ. ЛЕНИНА [8];59.89852359936123;30.4062538
15320;"Театр ""За Чёрной речкой"" (25, 40)";59.9997110428713;30.2904987
15321;"Универсам ""Таллинский"" (20, 37)";59.83340494289132;30.2116985
15322;Пражская улица (26, 27, 29);59.86206243484038;30.4026299
15323;Улица Севастьянова (24, 26);59.87171458537555;30.3291988
15324;Богатырский проспект, 2 (25, 40);60.00021989255088;30.2958126
15325;Улица Генерала Симоняка (20, 37);59.83320243778626;30.2033024
15326;Бухарестская улица (26, 27, 29);59.85864322161883;30.3901176
15327;Кардиоклиника (24, 26);59.87178315191183;30.3321228
15328;"Метро ""Пионерская"" (25, 50)";60.00394552655881;30.2978973
15329;Будапештская улица / Проспект Славы (26, 27, 29, 35);59.85611545292466;30.3781929
1533;ЗАГРЕБСКИЙ БУЛЬВАР;59.8272125350656;30.4164791
15330;Проспект Юрия Гагарина (24, 26);59.87161173530602;30.3363705
15331;Белградская улица (26, 27, 29, 35);59.85490123251805;30.3699989
15332;Проспект Маршала Жукова (20, 37);59.83309260399388;30.196249
15333;Спортивно-концертный комплекс (24, 26);59.8689306645989;30.3365173
15334;Проспект Космонавтов / Улица Типанова (26, 27, 29, 35);59.85276080390611;30.3541298
15335;Проспект Королёва (25, 50);60.00957245303886;30.2945385
15336;Бассейная улица (24, 26);59.86437371991229;30.3377609
15337;Поликлиника № 102 (25, 50);60.01018357248459;30.2901878
15338;Проспект Космонавтов (24, 26);59.86420569421521;30.3472309
15339;Белградская улица (26, 27, 29, 35);59.85475373945056;30.3713722
15340;Серебристый бульвар (25, 50);60.01100976070617;30.2841167
15341;Торговый центр (24, 26);59.86031343286617;30.3489208
15342;Будапештская улица (26, 27, 29);59.85638298705699;30.381321
15343;Проспект Сизова (25, 50);60.012262659651;30.2746124
15344;Поликлиника № 51 (24, 26);59.85642414596333;30.3505783
15345;Улица Маршала Новикова (25, 50);60.01312976082177;30.2679291
15346;Бухарестская улица (26, 27, 29);59.85934286856906;30.3941002
15347;Улица Типанова / Проспект Космонавтов (24, 45);59.85227369995871;30.3523293
15348;Улица Бабушкина (27,28);59.87547525108506;30.4438095
15349;Пражская улица / Просп. Славы (26,27,29,36,42);59.86220303688794;30.4043999
1535;ЗАМШИНА УЛ. 62 [33, 107];59.98071066457582;30.4072723
15351;Проспект Космонавтов, 50 (24, 45);59.8478345509322;30.3542805
15352;Софийская улица / Проспект Славы (26,29,35,36,42);59.86645511071338;30.4185104
15353;Улица Седова (27);59.8731544529457;30.4364738
15354;Универсам (25, 50);60.01048400695367;30.2622299
15355;Улица Орджоникидзе (24, 45);59.84239286972256;30.3566093
15356;Проспект Космонавтов / Улица Типанова (27, 29, 35, 45);59.85283283980017;30.3501987
15357;Платформа Сортировочная (26,29,35,36,42);59.86687343054097;30.42379
15358;Проспект Космонавтов, 74 (24, 45);59.83820292393493;30.3584118
1536;ЗАМШИНА УЛ. УГ. ПР. МЕЧНИКОВА;59.98512524552368;30.4124908
15360;Улица Типанова, 21 (27, 29, 35, 45);59.8526030104504;30.3420982
15361;Звёздная улица (24, 45);59.83528577893175;30.3596516
15362;Улица Ленсовета (27, 29, 35, 45);59.85253440436671;30.3311329
15363;Витебский проспект (24, 45);59.83531323560548;30.3671913
15364;Улица Подвойского (28, 33);59.91750266055277;30.4948006
15365;Товарищеский проспект (28, 33);59.91500333239792;30.4841995
15366;"Метро ""Московская"" (27, 29, 35, 45)";59.85347429540838;30.3224506
15367;Улица Зины Портновой / Ленинский просп. (29, 32, 35, 45);59.85174542423788;30.25737
15368;Варшавская улица (27, 29, 35, 45);59.85220166285424;30.3134003
15369;Проспект Большевиков (28, 33);59.91365430174044;30.4765263
15370;"Метро ""Ленинский проспект"" (29, 32, 35, 45)";59.85169396836232;30.269989
15372;Универсам (28, 33);59.91621193512856;30.4741592
15373;Проспект Народного Ополчения (29, 32, 35, 45);59.85171455072209;30.279438
15374;Проспект Непокорённых (31);59.99541453689831;30.3796673
15375;"Метро ""Проспект Большевиков"" (28, 33)";59.91930000623949;30.4675789
15377;Ж/д платформа Ленинский проспект (29, 35, 45);59.85173513306913;30.2894535
15378;Проспект Маршала Блюхера (31);59.98665586058957;30.3651257
15379;Клочков переулок (28);59.91840305732089;30.4631023
1538;ЗАНЕВСКИЙ ПР.,З2;59.93136537811915;30.4256554
15380;Варшавская улица (27, 29, 35, 45);59.85190322176013;30.3155994
15381;Ленинский проспект, 147 (29, 35, 45);59.85175228501527;30.2988586
15382;Полюстровский проспект (31);59.9866011969846;30.3562813
15383;Проспект Пятилеток (28);59.92081312466318;30.4653492
15384;"Метро ""Проспект Большевиков"" (28)";59.92011819422515;30.4687538
15385;"Метро ""Московская"" (27, 29, 35, 45)";59.85091182925782;30.3233318
15386;"Метро ""Лесная"" (31)";59.98549423955922;30.3451481
15387;Улица Ленсовета (27, 29, 35, 45);59.85200270242223;30.3318024
15388;Лесной проспект (31);59.98507057939079;30.3406029
1539;ЗАПОРОЖСКАЯ УЛ. 23 [48];59.85097014728142;30.4686642
15390;Улица Типанова, 21 (27, 29, 35, 45);59.85223596625677;30.3386288
15391;Клочков переулок (33);59.91802304493406;30.4623699
15392;Универсам (28, 33);59.91557511311246;30.4740601
15393;Большой Сампсониевский проспект (31);59.98469133060799;30.3368397
15394;Софийская улица (27);59.86628366664098;30.4172401
15395;Искровский проспект (33);59.91645501988035;30.4557209
15397;Белоостровская улица (31);59.9836287275419;30.3327236
15398;Улица Антонова-Овсеенко (28);59.91050406743688;30.4788017
15399;Дальневосточный пр. (33);59.91292498060939;30.4407883
1540;ЗАРЕЧНАЯ УЛ. 14 [20];59.77696826528;30.1461468
15400;Выборгская набережная (31);59.98151025308088;30.3280869
15401;Улица Седова (27);59.87345270343251;30.4384212
15402;Улица Еремеева (33);59.91649268073897;30.4299507
15404;Улица Академика Павлова (31);59.97471997058241;30.316721
15405;Зольная ул. (33);59.9182181869735;30.4260349
15406;Улица Седова, 88 (28);59.87411433001932;30.4363213
15407;Улица Профессора Попова (31);59.97079621337809;30.3140774
15408;Гранитная ул. (33);59.92052214570886;30.4223633
15409;"Метро ""Улица Дыбенко"" (28)";59.90720284901416;30.482502
1541;ЗАРЕЧНАЯ УЛ. УГ. АННИНСКОГО ШОССЕ [20];59.77989739320367;30.1489201
15410;Площадь Льва Толстого (31);59.96656432351859;30.3132095
15411;Рижская ул. (33);59.9229046747681;30.4190807
15412;Улица Антонова-Овсеенко (28);59.91112386541585;30.4788895
15414;Таллинская улица (33);59.92445528066281;30.4163017
15415;Улица Подвойского (28, 33);59.91328450711315;30.4775887
15416;Площадь Льва Толстого (31);59.96629083869238;30.3132305
15417;Рижская ул. (33*);59.92195647608016;30.4196949
15418;Товарищеский проспект (28, 33);59.91520533988334;30.4859009
15419;Набережная реки Карповки (31);59.96864615274022;30.3143673
1542;ЗАСТАВСКАЯ УЛ. [3, 36, 50];59.88940349127352;30.3199539
15420;Проспект Солидарности (28, 33);59.91780393671536;30.4968014
15421;Гранитная ул. (33*);59.91985117274844;30.4225845
15422;Улица Профессора Попова (31);59.9711995478384;30.3147602
15423;Зольная ул. (33*);59.91798538581192;30.4255829
15424;Улица Академика Павлова (31);59.97503439790264;30.3173866
15425;Улица Еремеева (33);59.91626671494633;30.4295692
15426;Выборгская набережная (31);59.98148291704058;30.3285027
15427;ул.Коллонтай (33*);59.91253463313934;30.4405994
15428;Белоостровская улица (31);59.9829863657371;30.3319378
15429;Искровский проспект (33);59.91660908675903;30.45788
1543;ЗАХАРЖЕВСКАЯ УЛ., УГ. ПАВЛОВСКОГО ШОССЕ;59.7085317095728;30.4130287
15431;Клочков переулок (33);59.91803331559631;30.4636993
15432;"Метро ""Лесная"" (31)";59.98514232867169;30.3441753
15433;Софийская улица (35);59.86660255190878;30.4145012
15434;"Метро ""Проспект Большевиков"" (28, 33)";59.91913910497345;30.4707661
15435;Софийская улица, 40 (35);59.86980152201033;30.4098015
15436;Полюстровский проспект (31);59.98621171618598;30.3551769
15438;Софийская улица, 32 (35);59.87330529260674;30.4045506
15439;Проспект Маршала Блюхера (31);59.98605797250382;30.3652382
1544;ЗАЯЧИЙ ПЕР. [74];59.94105899232699;30.3801937
15440;Улица Белы Куна (35);59.8775045311691;30.3960018
15442;Улица Жака Дюкло (34);60.00820336792488;30.3605022
15443;Пражская улица (36, 42);59.86271742955842;30.4028358
15445;Проспект Тореза (34);60.00620255805951;30.3540001
15446;"Станция метро ""Международная"" (35, 36)";59.87070321254193;30.3784008
15447;Администрация Фрунзенского района (36, 42);59.8648777919106;30.4002533
15448;Улица Пионерстроя (конечная станция);59.83640462005108;30.126318
15449;Малая Объездная улица (34);60.00395235593332;30.3496685
15450;Улица Турку (35, 39);59.86720259654222;30.3710003
15451;Будапештская улица, 19 (35, 39);59.86400337643319;30.3734989
15452;Малая Морская улица (1, 7, 10, 11);59.93690200036589;30.3139
15453;Дворцовая площадь (1, 7, 10, 11);59.93950231974564;30.3109016
15454;Улица Ленина (1, 9, 31);59.96155577469995;30.3049545
15455;Университетская набережная (1, 10, 11);59.94160295518542;30.3050003
15456;Университет (1, 10, 11);59.93960495974859;30.2995014
15457;Шамшева улица (1, 9, 31);59.95950427332644;30.3017006
15459;Кадетская линия (1, 10, 11);59.93950231974564;30.2931023
1546;ЗВЕЗДНАЯ УЛ. [72];59.83655905835715;30.3705692
15460;Введенская улица (1, 9, 31);59.95750393718306;30.2984028
15461;Проспект Наставников (1, 22);59.94500337606838;30.4920998
15462;Улица Красного Курсанта (1, 9, 31);59.95430314816885;30.2932014
15463;Большой проспект В.О. (10, 11);59.94080240297558;30.2916985
15464;Средний проспект (1);59.94469208443339;30.2867012
15466;Универсам(1*,22*);59.94514362738837;30.4981918
15467;"Метро ""Спортивная"" / Просп. Добролюбова (1, 7, 9, 31-оборот)";59.95150562426816;30.2929001
15469;"Метро ""Площадь Восстания"" (1, 5, 7, 10, 11, 22)";59.93140302205825;30.3569698
1547;ЗЕМЛЕДЕЛЬЧЕСКАЯ УЛ. [86];59.99005166002556;30.3328629
15470;Переулок Талалихина (1, 9, 31);59.95190577357692;30.2971992
15472;Улица Коммуны (1, 22);59.94450393972039;30.5051003
15473;Пионерская улица (1, 9, 31);59.95546244400128;30.2984028
15474;Заневский проспект, 32 (1, 22);59.93148515414074;30.4246006
15475;Введенская улица (1, 9, 31);59.95765097454998;30.3019714
15476;"Проспект Шаумяна. Театр ""Буфф"" (1, 22)";59.92982536217144;30.4153824
15477;Проспект Наставников (1, 22, посадка);59.93590287606857;30.4891014
15479;Суворовский просп. / Невский просп. (1, 10, 16, 22);59.92957210825929;30.3683014
1548;ЗЕМСКИЙ ПЕР. [134, 40];60.02340693239092;30.2924118
15480;Ленская улица (1, 22);59.93890358006317;30.5038986
15481;"Метро ""Новочеркасская"" (1, 22)";59.92870623906288;30.409502
15482;Университетская набережная (1, 10, 11);59.93900280052928;30.2933979
15483;Улица Ленина (1, 9, 31);59.96128224852269;30.3078403
15484;Университет (1, 10, 11);59.94057318147581;30.3030815
15485;Ординарная улица (1, 9, оборотная);59.96420544264319;30.3109016
15486;"Метро ""Площадь Александра Невского"" (1, 22, 33)";59.92429782729903;30.3838024
15487;Белорусская улица (1, 22);59.93500295410477;30.5011005
15489;Исполкомская улица (1, 16, 22);59.92647472494962;30.3769493
1549;МОРСКОЙ ПЕР.;59.87132032504807;29.9692554
15490;Малая Морская улица (1, 7, 10, 11, 17);59.93680277361411;30.3134995
15491;Полтавская улица (1, 16, 22, 33);59.92823735974947;30.3726635
15492;Улица Коммуны, 10 (1, 22);59.93650509157742;30.5037994
15493;Полтавская улица (1, 16, 22);59.9283126546844;30.371973
15495;"Метро ""Невский проспект"" (1, 5, 7, 10, 11, 22)";59.93539303734589;30.3248425
15496;Улица Коммуны, 10 (1, 22);59.93632032207278;30.5033798
15498;"Метро ""Площадь Восстания"" (1, 5, 7, 10, 11, 22)";59.93148515414074;30.3587608
15499;"Метро ""Гостиный двор"" (1, 5, 7, 10, 11, 22)";59.93450336711302;30.3319988
1550;ЗНАМЕНКА,МОСТОВАЯ УЛ. [200, 210, 359];59.87389150388277;29.9527798
15500;Литейный проспект (1, 5, 7, 10, 11, 22);59.93290532257322;30.3471012
15501;Ленская улица (1, 22);59.93950231974564;30.5044003
15502;"Метро ""Гостиный двор"" (1, 7, 10, 11)";59.93420566443702;30.336937
15503;"Метро ""Невский проспект"" (1, 7, 10, 11)";59.93531433671054;30.3280201
15504;Дворец творчества юных (1, 5, 7, 10, 11, 22);59.93370264349885;30.3387985
15505;Просп. Косыгина (1, 22);59.94603643285651;30.5041981
15506;Большая Конюшенная улица (1, 5, 7, 10, 11, 22);59.93611159972747;30.3215008
15507;Белорусская улица;59.93539988087057;30.4987354
15508;Универсам(1,22);59.94540360387569;30.4973011
15509;Проспект Наставников (1, 22);59.94535913435792;30.490118
1551;ИВАНОВСКАЯ УЛ. [11, 118, 95];59.87502961556044;30.4451389
15510;Проспект Наставников (1, 22, высадка);59.93610475634964;30.4895649
15511;Улица Осипенко (1, 22);59.94521546320053;30.484026
15512;Индустриальный просп. (1, 22);59.94480154995691;30.476841
15513;Улица Передовиков (1, 22);59.94153795380389;30.464386
15514;Исполкомская улица (1, 16, 22, 33);59.92561219768175;30.3799343
15515;Ладожский вокзал (1, 22);59.93206349513039;30.4397297
15516;Проспект Энергетиков (1, 22);59.93330911839875;30.4342918
15518;Улица Стахановцев (1, 22);59.92800462887019;30.4078999
15519;"Метро ""Новочеркасская"" (1, 22)";59.92920249097161;30.4138012
1552;ИВАНОВСКАЯ УЛ. [118];59.87389150388277;30.4366989
15520;"Проспект Шаумяна, театр ""Буфф"" (1, 22)";59.93010257031835;30.4185009
15521;Заневский проспект, 32 (1, 22);59.93141328857969;30.4255695
15522;"Метро ""Ладожская"" (1, 22)";59.93366158022832;30.4373817
15523;Почтамтский переулок (5, 22);59.93300113897665;30.2985992
15524;Улица Якубовича (5, 22);59.93320303692067;30.3015003
15525;Улица Есенина (4);60.05806155848441;30.3478317
15526;Малая Морская улица (5, 22);59.93436991451973;30.3095932
15527;"Метро ""Адмиралтейская"" (5, 22)";59.93612186479155;30.3144798
15528;Проспект Художников (4);60.05535121346933;30.3590984
15529;Улица Маршала Тухачевского (3, 16);59.97037236509286;30.4236717
1553;ИВАНОВСКАЯ УЛ. ПО УЛ. СЕДОВА;59.87389493198848;30.4366207
15530;Улица Стахановцев (33, конечная - 7, 18);59.92380492498194;30.4113998
15531;3-я Советская улица (5, 7, 11, 16);59.93310379910176;30.3689003
15532;Сиреневый бульвар (4);60.05270201967582;30.3569603
15535;Просп. Просвещения / просп. Художников (4, 21);60.04840557776203;30.3534489
15536;Поэтический бульвар (4, 21);60.04316043285564;30.3491707
15537;Сквер Галины Старовойтовой (5, 7, 11, 16, 33);59.93810296268126;30.3749008
15538;Заячий переулок (5, 7, 11, 16, 33);59.94110346761268;30.3801022
15539;Проспект Луначарского (4, 21);60.03963023366048;30.3478184
1554;ИНДУСТРИАЛЬНЫЙ ПР. [15, 24, 77, 92, 153, 102, 103];59.9558146703955;30.4659767
15540;Гражданский проспект (6, 38);60.04232481592953;30.4265594
15541;Тульская улица (5, 11, 15);59.94420290595875;30.3864803
15542;Улица Руднева (4, 21);60.03730384783314;30.3594971
15543;Улица Бонч-Бруевича (к/ост 5, 11, 15);59.94350162352723;30.391901
15544;Заневский проспект (7, 18, 33);59.92692309336203;30.4080086
15545;Проспект Культуры (4, 21);60.03564253069085;30.3658295
15546;Суворовский проспект (5, 7, 11, 15, 16);59.94448341477803;30.3862991
15547;Улица Академика Байкова (4, 21);60.02960377490373;30.3649006
15548;"Парк ""Сосновка"" (4, 21)";60.02520536485604;30.3658028
15549;Заячий переулок (5, 7, 11, 16);59.94080240297558;30.3791008
15550;Светлановский проспект (4, 21);60.0174034862707;30.3677216
15551;"Метро ""Новочеркасская"" (7, 18)";59.9302531515507;30.4112301
15552;Сквер Галины Старовойтовой (5, 7, 11, 16);59.93850327378836;30.3749008
15553;5-я Советская улица (5, 7, 11, 16);59.93494136159467;30.3708458
15554;Тихорецкий проспект, 7 (4, 13, 21);60.01300345222372;30.3688011
15555;3-я Советская улица (5, 7, 11, 16, 33);59.93230304169947;30.3682003
15556;Апрельская улица (3, 16);59.96822569531409;30.4260197
15557;"Метро ""Адмиралтейская"" (5, 22)";59.93600552721251;30.3135986
15558;Республиканская улица (7, 18);59.93295323080953;30.4083843
15559;"Метро ""Политехническая"" (4,13,21,34,50)";60.00920031331837;30.3695011
1556;ИНДУСТРИАЛЬНЫЙ ПР. [27];59.9510952097023;30.4705734
15561;Исаакиевская площадь (5, 22);59.93500295410477;30.3109016
15562;Гражданский проспект, 124 (6, 38);60.03980760532888;30.4240875
15565;Почтамтский переулок (5, 22);59.9336034071747;30.299799
15567;Площадь Труда (5, 22);59.93130377885394;30.2935009
15568;Проспект Металлистов, 77 (3, 43);59.97050225465993;30.4023819
15569;Новочеркасский проспект (7, 16);59.94250954011893;30.4070263
15570;Замшина улица (3, 43);59.97189340833983;30.3968105
15571;"Метро ""Гражданский проспект"" (6, 38)";60.0348340155308;30.4192581
15572;Гражданский проспект, 110 (6, 38);60.03027935157183;30.4147606
15574;Проспект Металлистов / Кондратьевский просп. (3,38,43);59.97372198583295;30.3892708
15575;Площадь Калинина (3, 38, 43);59.97115511292677;30.3869629
15577;Проспект Луначарского (6, 38);60.02647137530994;30.4108582
15578;Улица Ватутина (3, 38);59.96293362847801;30.3798313
15579;Биржевая площадь (7);59.94412764709126;30.3056412
1558;ИНЖЕНЕРНАЯ УЛ. [49];59.93703544277088;30.3362064
15580;Пенсионный фонд  (3,38);59.9616822797932;30.3781509
15581;Северная площадь (31);60.02339328167538;30.4075184
15583;"Завод ""Красный Выборжец"" (3, 38)";59.96022573245688;30.3766727
15584;Проспект Добролюбова (7);59.94945350061862;30.3028622
15585;Северный проспект (6, 31);60.0200520994754;30.4045849
15586;"Метро ""Политехническая"" (4,13,21,34,50)";60.00810094032566;30.3695011
15589;Улица Комсомола (3, 8, 38, 43);59.95607456319869;30.372509
1559;ИНСТИТУТ ИМ. БЕХТЕРЕВА [8, 58];59.90393897744188;30.4042149
15590;Гражданский проспект, 90 (6, 31);60.01728402062159;30.4021492
15591;Областная больница (3, 8, 38, 43);59.95483321471734;30.3663788
15592;Улица Михайлова (3, 8, 38, 43);59.9545322747495;30.3625679
15594;Финляндский вокзал (3, 8);59.95555135587151;30.3528633
15596;"Метро ""Академическая"" (6, 31)";60.0127917988966;30.3972988
15597;Улица Чайковского (3, 8);59.94706603689595;30.3485928
15598;Улица Пестеля (3, 8, 15);59.94242401429736;30.3483067
1560;ИНСТИТУТСКИЙ ПР. [40, 123, 9];60.00602500594398;30.35495
15600;"Парк ""Сосновка"" (4, 21)";60.02558073689548;30.3663998
15601;Улица Некрасова (3, 8, 15);59.94025842698392;30.3481731
15602;Улица Академика Байкова (4, 21);60.02954577020243;30.3655796
15603;Улица Жуковского (3, 8, 15);59.93713124724335;30.3479824
15606;Невский проспект (3, 8, 15);59.9335212803371;30.3477287
15607;Проспект Луначарского (4, 21);60.03652266393766;30.3650818
15608;Асфальтобетонный завод (8, 43);59.96041378794295;30.3695488
1561;ИРИНОВСКИЙ ПР. [174, 153];59.95534959397633;30.4670391
15610;Владимирская площадь (3, 8, 15);59.92834345710852;30.3469925
15611;Улица Верности (6, 31);60.00949392849233;30.3939247
15612;Кондратьевский проспект (8, 43);59.95750393718306;30.3722191
15613;Улица Руднева (4, 21);60.03784281983721;30.3585491
15614;Пять углов (3, 8, 15);59.92583125435016;30.3413639
15615;Асфальтобетонный завод (8, 43);59.96055397406543;30.3690701
15617;Улица Гидротехников (6, 31);60.00627426152825;30.3906403
15618;Звенигородская улица (3, 8, 15);59.92405479998831;30.3368702
15619;Проспект Художников (4, 21);60.04050343882911;30.3476982
1562;ИРИНОВСКИЙ ПР.;59.96128566761384;30.4891376
15620;Минеральная улица (8);59.96570283866995;30.367384
15621;Витебский вокзал (3, 8, 15, 17);59.92090555273826;30.3288689
15622;Политехнический университет (6, 31);60.0037167416971;30.3881779
15623;Троллейбусный парк N 2 (8);59.96783257988444;30.3659687
15625;Поэтический бульвар (4, 21);60.04350149491222;30.3501987
15626;Технологический институт (3, 8, 15, 17);59.91769095847487;30.3203239
15627;Агрофизический институт (6, 31);59.99912363619267;30.3835297
15629;Проспект Просвещения (4);60.04930242094157;30.3548813
15631;1-я Красноармейская улица (3, 8);59.91624617252526;30.3171024
15632;Проспект Непокорённых, 6 (6);59.9974535683631;30.3720169
15633;Сиреневый бульвар (4);60.0532543787831;30.3580608
15635;Измайловский проспект (3, 8);59.91610579897435;30.3066559
15636;Придорожная аллея (4);60.05610467762798;30.3583508
15637;Лермонтовский проспект (3, 8);59.91600651000671;30.2982311
15638;Улица Кораблестроителей, 35 (9, 11);59.95640284593146;30.2243004
15639;Проспект Непокорённых, 6 (6);59.99705396908235;30.372633
1564;ИСААКИЕВСКАЯ ПЛОЩАДЬ [70, 71];59.9319608317855;30.3073769
15640;10-я Красноармейская улица (3, 8);59.91201073853127;30.2974319
15641;Капитанская улица (9, 11);59.95410479850637;30.2187004
15642;Улица Есенина (4);60.0585047383824;30.3472996
15643;Набережная Обводного канала (3, 8);59.9100280821282;30.2975273
15644;Площадь Мужества (6);59.99813663287971;30.3666496
15646;Новосмоленская набережная (9, 11);59.9490020163653;30.2156982
15647;Улица Карбышева (6);59.99756969032593;30.3619118
15648;Балтийский вокзал (об/ст, 3, 8);59.90759668380778;30.2990227
15649;Новороссийская ул.(6);59.99470409105607;30.3540516
1565;ИСКРОВСКИЙ ПР.,6 [12, 118];59.91402066828092;30.4590988
15650;Набережная Обводного канала (3, 8);59.91027463652132;30.2978382
15652;Институтский проспект (6, 34);59.99636063580123;30.3427887
15653;Мичманская улица (9, 11);59.9461903624037;30.2141171
15654;10-я Красноармейская улица (3, 8);59.91322629832435;30.297699
15656;Боцманская улица (9, 11);59.94293374493321;30.2148075
15657;Троицкий проспект (3, 8);59.91578396468999;30.298296
15658;Новороссийская улица, 18 (6, 34);59.99714276933963;30.3372593
15659;Измайловский проспект (3, 8);59.9159346109137;30.3104401
15660;Улица Нахимова (9, 11);59.93980339618678;30.2198009
15662;Проспект Энгельса (6, 34);59.99772679586215;30.3331566
15664;Студенческая улица (6, 34);59.99646993068217;30.3222351
15665;Верейская улица (3, 8, 15, 17);59.9185913501347;30.3234615
15667;Уральская улица (10);59.95470326370284;30.235199
15668;Омская улица (6, 34);59.99456063379444;30.3164272
15669;Витебский вокзал (3, 8, 15, 17);59.92027566742223;30.3280964
15671;Универсам (10);59.95080107613731;30.2330513
15672;Новосибирская улица (6, 34);59.99078953414123;30.3065605
15673;Звенигородская улица (3, 8, 15);59.92357900897291;30.3360672
15675;Улица Нахимова, 18 (9, 11);59.94136347578127;30.2258987
15676;2-й Муринский проспект (34);59.99980325111203;30.3473988
15677;Будапештская улица, 33 (35, 39);59.85920568405223;30.3771
15678;"Метро ""Чёрная речка"" (34)";59.98520382793154;30.301302
15679;Улица Турку (36, 42);59.8682929356515;30.3961658
1568;ИСПОЛКОМСКАЯ УЛ. [24, 27];59.92517750282279;30.3811798
15680;Каменноостровский проспект (34);59.97880045830492;30.2996998
15681;Улица Академика Павлова (34);59.97608360659515;30.3026714
15682;Пражская улица, 32 (36, 42);59.87078892329708;30.3931751
15683;Проспект Ветеранов, 149 (37);59.83535785265201;30.1344566
15684;Улица Зины Портновой (32, 35, 45);59.85200270242223;30.2552223
15685;Улица Чапыгина (34);59.9730042384811;30.3050003
15686;Улица Лётчика Пилютова (37);59.8353235318523;30.1410198
15687;Улица Профессора Попова (34);59.97089533840411;30.3066998
15688;Улица Пограничника Гарькавого (37);59.8353166676881;30.1479359
15689;"Левашовский просп. / Метро ""Петроградская"" (34)";59.96760354526575;30.3071003
1569;КАДЕТСКАЯ ЛИНИЯ УГ. СРЕДНЕГО ПР. [1];59.94587224055173;30.2857113
15690;Соломахинский проезд (32, 35, 45);59.85203357567068;30.2464104
15691;Улица Тамбасова (37);59.8343076201607;30.1573658
15692;Кронштадтская площадь (35, 45);59.85204386674714;30.2404919
15693;Бармалеева улица (34);59.96606179341303;30.3012848
15694;Улица Добровольцев (37);59.83305141622834;30.1658955
15695;Большой проспект П.С. (34);59.96440373184988;30.3052998
15696;Проспект Стачек (32, 35, 45);59.85207473995741;30.2326984
15697;Улица Белы Куна / Будапештская улица (36, 39);59.86861523030399;30.370245
15698;Улица Партизана Германа (37, 48);59.832951878918;30.1770401
1570;КАДЕТСКИЙ БУЛЬВАР, УГ. ЗАХАРЖЕВСКОЙ УЛ. [186];59.70730866205864;30.4054718
15700;Будапештская улица, 8 (36, 39);59.87251337675192;30.3672848
15701;Авангардная улица (37, 48);59.83297247286868;30.1830978
15702;Морской технический университет (32, 35, 45);59.85207473995741;30.2265415
15703;"Метро ""Петроградская"" (оборотная, 34)";59.96657799770064;30.3109837
15704;Ленинский проспект, 104 (32, 35, 45);59.85208160066691;30.2232227
15705;Улица Профессора Попова (34);59.97172250808784;30.3063793
15706;Авангардная улица (37, 48);59.83311663016691;30.1814995
15707;Институт Скорой помощи (36,39);59.87557808920399;30.3641281
15708;Проспект Маршала Жукова (32, 35, 41, 45);59.85243149497597;30.2194614
15709;Улица Академика Павлова (34);59.97620322111018;30.3029003
1571;КАЗАНСКАЯ УЛ. [70, 71];59.92883629200504;30.3081417
15710;Ленинский проспект, 95 (35, 41, 45);59.85330278442477;30.2157593
15711;Белградская улица (36, 39);59.874957627723;30.3553696
15712;Улица Партизана Германа (37);59.83312349478461;30.1741409
15713;Улица Котина (35, 41, 45);59.85490123251805;30.2085094
15714;Каменноостровский проспект (34);59.97870135694014;30.3003998
15715;Улица Добровольцев (37);59.83345985931774;30.1643429
15716;Улица Десантников (35, 41, 45);59.8558650664674;30.2046413
15717;Брестский бульвар (35, 41, 45);59.85707239202214;30.1992817
15718;"Метро ""Чёрная речка"" (34)";59.98488266387036;30.3017311
15719;Улица Тамбасова (37);59.8347778263842;30.1556034
15720;Ленинский проспект, 79 (35, 41, 45);59.85817335241795;30.1944599
15721;"Гостиница ""Выборгская"" (34)";59.98687109765651;30.3043518
15722;Улица Пограничника Гарькавого (37);59.83550199962456;30.1461716
15723;Проспект Кузнецова (35, 41, 45);59.8595623626193;30.188242
15724;Институтский проспект (34);59.99660313333013;30.3458004
15725;Улица Лётчика Пилютова (37);59.83549513549716;30.1394711
15727;2-й Муринский проспект (34);60.0013024527411;30.348402
15729;Проспект Ветеранов, 149 (37);59.83549513549716;30.1336956
1573;КАЙКИНО [487, 487, 487а];59.58758916807024;29.3534412
15730;Малая Объездная улица (34);60.00434845724339;30.3501644
15731;Проспект Кузнецова (35, 41, 45);59.85893474296957;30.1895485
15732;Проспект Тореза (34);60.00656448826604;30.3555946
15733;Ленинский проспект, 79 (35, 41, 45);59.85773434454026;30.1951218
15734;Улица Пионерстроя (37);59.83552945611999;30.1279716
15735;Улица Жака Дюкло (50);60.0094222320044;30.3602009
15736;Улица Десантников (35, 41, 45);59.85585134660708;30.2033806
15737;Улица Котина (35, 41, 45);59.85436270815385;30.2098904
15739;Ленинский проспект, 95 (35, 41, 45);59.85264417403272;30.2173309
1574;КАМЕННЫЙ ОСТРОВ [46А];59.9786876877631;30.2997875
15740;Тихорецкий проспект, 6 (34, 50);60.01200320763649;30.3689823
15741;Проспект Маршала Жукова (32, 35, 45);59.85180374080068;30.2232018
15742;Морской технический университет (32, 35, 45);59.85180374080068;30.2271023
15743;Проспект Стачек (32, 35, 45);59.85180374080068;30.232811
15744;Кронштадтская площадь (35, 45);59.85179344964995;30.2404919
15745;Улица Салова (36, 39);59.87798441037606;30.3531322
15746;Соломахинский проезд (32, 35, 45);59.85177286733897;30.2480087
15747;Северный проспект (38);60.02146506145896;30.4082527
15748;Будапештская улица, 46 / Проспект Славы (35, 39);59.85680486343328;30.379303
15749;Витебский проспект (36, 39);59.87772733309097;30.3461246
1575;КАМЫШОВАЯ УЛ. [172];60.00496308781566;30.2578144
15750;Будапештская улица, 40 (35, 39);59.86030314434721;30.3766003
15751;Проспект Юрия Гагарина (36, 39);59.87623967349646;30.33424
15752;Будапештская улица, 19 (35, 39);59.86470291065417;30.3732033
15753;Московский проспект (36, 39);59.87607513562781;30.3231544
15754;Улица Белы Куна (35, 36);59.86781291654894;30.3715591
15755;"Станция метро ""Международная"" (35, 36)";59.87180372184515;30.3816986
15757;Малая Балканская улица (39, 47);59.83104345088538;30.3850594
15758;Купчинская улица (39, 47);59.83322303158199;30.3935909
15759;Будапештская улица (39);59.83564271392443;30.3999386
15760;Дунайский проспект (39);59.83940402700869;30.396101
15761;Малая Каштановая аллея (39);59.84444475563927;30.3910809
15762;Улица Димитрова (39);59.84900443050851;30.3863983
15763;Альпийский переулок (39);59.8526030104504;30.3831005
15765;Проспект Славы (39);59.85570385775123;30.3799
15766;Тихорецкий проспект (40);60.01841380706624;30.3661308
15767;Альпийский переулок (39);59.85210218278692;30.3831978
15768;Проспект Раевского (40);60.01518476805556;30.3581448
15769;Улица Димитрова (39);59.84770418057361;30.3873005
1577;КАНТЕМИРОВСКАЯ УЛ. [86];59.98522774427951;30.3350792
15771;Малая Каштановая аллея (39);59.8440055666167;30.3911018
15772;Проспект Тореза (40, 50);60.01059325517471;30.3464222
15773;Пловдивская улица (39);59.84210463481417;30.3931026
15774;Улица Орбели (40, 50);60.00801216948306;30.3395977
15775;Дунайский проспект (39);59.83830244555022;30.396801
15776;"Объединение ""Светлана"" (40, 50)";60.00540698056987;30.3326168
15777;Улица Ярослава Гашека (39, 47);59.8350009146059;30.3993015
15778;Светлановский проспект, 2 (40, 50);60.00430065216456;30.3296947
15779;Купчинская улица (39, 47);59.83300336377085;30.3914013
1578;КАПИТАНСКАЯ УЛ. [7];59.9538380505368;30.2185497
15780;Малая Балканская улица (39, 47);59.83120477906926;30.3844013
15781;Светлановская площадь (40, 50);60.00372357111888;30.32658
15783;Удельный парк (40,50*);60.0019581186572;30.3071232
15784;Богатырский проспект (40);60.00063994377119;30.296793
15785;Улица Васи Алексеева (конечная, 41, 48);59.87637335991512;30.278841
15786;"Театр ""За Чёрной речкой"" (40)";59.9999637611402;30.2897453
15787;Автовская улица (41, 46, 48);59.87670243188612;30.2768021
15788;Серебристый бульвар (40);59.99922950677158;30.2819309
15789;Улица Софьи Ковалевской (38);60.01872099307818;30.4167423
1579;КАРДИОЛОГИЧЕСКИЙ ЦЕНТР [171, 85];60.01538957905233;30.3043175
15790;Улица Зайцева (41, 46, 48);59.87780274263398;30.2713985
15791;Байконурская улица (40);59.99886408108178;30.2781906
15792;Улица Маршала Говорова (41, 46, 48);59.87900241690078;30.266901
15793;Улица Софьи Ковалевской, 11 (38);60.01436892499146;30.4123707
15794;Полевая Сабировская улица (40);59.99957102245869;30.2690182
15795;Проспект Стачек (41, 46, 48);59.88000325487608;30.2628994
15796;Серафимовское кладбище (40);60.00033600480374;30.2631168
15797;Кронштадтская улица (41, 46, 48);59.87289048189226;30.2541122
15798;Проспект Науки (38);60.01012211964328;30.4090748
15799;Дорога на Турухтанные острова (41, 46, 48);59.86820378977064;30.2452011
1580;КАРЬЕР МЯГЛОВО,ДОРОГА НА ОСТРОВКИ [485];59.85918167670362;30.6715355
15800;Богатырский проспект (40);60.00088240993365;30.2565918
15801;Улица Маршала Казакова (41, 46, 48);59.85900333585733;30.2317009
15802;Серафимовское кладбище (40);60.0002028171852;30.26334
15803;Проспект Науки, 49 (38);60.00818971092998;30.4167309
15804;Полевая Сабировская улица (40);59.99912022100705;30.2715759
15805;Проспект Маршала Жукова, 30 (41, 46, 48);59.85700379515316;30.2287979
15806;Улица Карпинского (38);60.0063049915387;30.4241314
15807;Байконурская улица (40);59.99841326999637;30.2775593
15808;Проспект Маршала Жукова, 32 (41, 46, 48);59.85560438815373;30.2265987
15809;Стоматологическая поликлиника (38);60.00442016473205;30.4316692
1581;КАРЬЕР МЯГЛОВО,Ж.Д.  ПЕРЕЕЗД [485];59.86512125252079;30.6709538
15811;Ленинский проспект / Просп. Маршала Жукова (41, 46, 48);59.85270248902051;30.2229004
15812;Проспект Маршала Жукова, 32 (41, 46, 48);59.85590279605412;30.2276001
15813;Удельный парк (40*,50);60.00158589324753;30.3101883
15814;Замшина улица (38);59.98549423955922;30.4111576
15815;Проспект Маршала Жукова, 30 (41, 46, 48);59.8576040129614;30.2301006
15816;Улица Маршала Казакова (41, 46, 48);59.86010423235509;30.2338028
15817;Кондратьевский проспект (38);59.98661144641741;30.4011517
15818;Светлановский проспект, 2 (40, 50);60.004037722996;30.3295441
15819;Дорога на Турухтанные острова (41, 46, 48);59.86960266681538;30.2479
1582;КАСЬКОВО [482, 487, 487, 487а];59.62148404579309;29.5072994
15820;Бестужевская улица (38);59.98418565880485;30.3989124
15821;"Объединение ""Светлана"" (40, 50)";60.00518162037767;30.3328304
15822;Улица Орбели (40, 50);60.00810094032566;30.3404999
15823;Кронштадтская улица (41, 46, 48);59.87260251108017;30.2538013
15823;Кронштадтская улица (41, 46, 48);59.87279449189867;30.2565289
15824;Проспект Маршала Блюхера (38);59.97899866014454;30.3941193
15825;Проспект Тореза (40, 50);60.01089709989153;30.3478756
15826;Улица Васи Алексеева (41, 46, 48);59.8798215981669;30.2630692
15828;Улица Жака Дюкло (40);60.01343358222993;30.3541508
15829;Улица Маршала Говорова (41, 46, 48);59.87850541424309;30.2679024
15830;Проспект Раевского (40);60.01558073483785;30.3595905
15831;Автовская улица (41, 46, 48);59.87690467241885;30.2749977
15832;Боткинская улица (оборотная, 38, 43);59.95601984909372;30.3552151
15833;Проспект Металлистов (38);59.97479174229891;30.3905106
15834;Проспект Маршала Блюхера (38);59.97932671575457;30.394701
15835;Улица Белы Куна (42);59.87506046744308;30.3880577
15836;Бестужевская улица (38);59.98508082929758;30.4000187
15837;Проспект Мечникова (38);59.98675835460554;30.4025555
15838;Пражская улица, 14 (42);59.87776503788386;30.3848209
15839;Замшина улица (38);59.985118412262;30.4127674
1584;КЕМПОЛОВО,1 [487, 487, 487а];59.60485881557054;29.4631519
15840;Стоматологическая поликлиника (38);60.00485382099317;30.4307842
15841;Улица Фучика (42);59.88153187389431;30.3795967
15842;Пражская улица (35);59.87486507170296;30.38978
15843;Улица Карпинского (38);60.0070698181548;30.4219151
15844;Софийская улица (35);59.87732286080456;30.3980103
15845;Софийская улица, 41 (35);59.8728733408423;30.4045506
15846;Проспект Науки, 30 (38);60.00876671404953;30.4153042
15847;Софийская улица, 55 (35);59.86938323901337;30.4097881
15848;Улица Софьи Ковалевской (38);60.01090734179964;30.4091358
15849;Хасанская улица, 6 (43);59.93670354656544;30.4816017
1585;КИНГИСЕППСКОЕ ШОССЕ,55;59.7198298656636;30.0594654
15850;Проспект Маршала Жукова (46, 48);59.83350447884751;30.1956005
15851;Улица Софьи Ковалевской, 11 (38);60.01479903723319;30.4130535
15852;Индустриальный проспект (43);59.93740497278248;30.4761982
15853;Улица Бурцева (46, 48);59.83680272622786;30.2001019
15854;Ленская улица (43);59.94170216757472;30.4773998
15855;Северный проспект (38);60.01841722025985;30.4166946
15856;Гражданский проспект (38);60.02161864064364;30.4082184
15857;Проспект Косыгина (43);59.94570462673514;30.4777012
15858;Проспект Маршала Жукова, 60 (46, 48);59.83900252023097;30.203001
15859;Улица Солдата Корзуна (46, 48);59.84140119390596;30.2063007
1586;КИПЕНЬ;59.67300034834889;29.8496475
15860;Улица Маршала Захарова (46, 48);59.84940238603483;30.2180996
15861;"Метро ""Электросила"" (об/ст 36, 39)";59.87777874870704;30.3203506
15862;Сызранская улица (36, 39);59.8782791898828;30.3362408
15864;Проспект Энтузиастов (43);59.94820164280298;30.4750996
15865;Улица Новостроек (46);59.87270535808508;30.2740993
15866;Проспект Ударников (43);59.95170056940667;30.4714985
15867;Университет профсоюзов (42);59.87920807099936;30.3723278
15868;Витебский проспект (36, 39);59.87755251940155;30.3468418
15869;Ириновский проспект (43);59.95639258714527;30.466608
15870;Белградская улица (36, 39);59.87821406440279;30.3526096
15871;"Метро ""Бухарестская"" (42)";59.88431816670905;30.3670692
15872;Улица Фучика (36, 39);59.87406290873573;30.3569221
15873;Университет кино и телевидения (42);59.88790950090674;30.3634148
15874;Экспериментальный завод (43);59.95920337577681;30.4636993
15875;Улица Новостроек (46);59.87350069751382;30.2751007
15876;Институт Скорой помощи (36*,39*);59.87516673481962;30.364975
15877;Бухарестская улица, 6 (42);59.89090769352493;30.3603687
15878;Улица Комсомола (3, 8);59.95497684419316;30.3506966
15879;Ленинский проспект (46, 48);59.85140581398883;30.2205009
1588;КИРОЧНАЯ УЛ. УГ. СУВОРОВСКОГО ПР. [136, 22];59.94250954011893;30.3809376
15880;Будапештская улица, 5 (36, 39);59.87231110950533;30.3671646
15881;Будапештская улица (47);59.83439685688874;30.4007549
15882;"Метро ""Волковская"" (42)";59.89818446661157;30.3582993
15883;Улица Маршала Захарова (46, 48);59.84910391983621;30.2171021
15885;Улица Олеко Дундича (47);59.82910401900155;30.4061794
15886;Шоссе Революции (43);59.96210623928638;30.4594994
15887;Улица Солдата Корзуна (46, 48);59.84140119390596;30.2057018
15888;Улица Салова (42);59.90040418176862;30.3628006
15889;Пражская улица, 25 (36, 42);59.87033293954086;30.3934174
15890;Проспект Маршала Жукова, 60 (46, 48);59.83880348088795;30.202198
15891;Уманский переулок (43);59.96070099789809;30.4514999
15892;Малая Балканская улица (47);59.82668386154788;30.4086304
15893;Улица Партизана Германа (48);59.83369668536928;30.1757927
15894;Улица Бурцева (46, 48);59.83650414704149;30.1991005
15895;Улица Турку (36, 42);59.86702429869596;30.3973751
15896;Старообрядческий мост (42);59.90494248942519;30.3637333
15897;Улица Отважных (48);59.83606828526153;30.1757488
15898;Проспект Энергетиков (43);59.96024282845428;30.4363995
15899;Загребский бульвар (47);59.82707178514343;30.4167309
1590;КОВЕНСКИЙ ПЕР. [22];59.93699780522383;30.360136
15900;Проспект Ветеранов (46, 48);59.8331029009273;30.1925983
15901;Андреевский переулок (48);59.8391946950193;30.1756744
15902;Улица Маршала Тухачевского (43);59.96000348368814;30.4302216
15903;Администрация Фрунзенского района (36, 42);59.86443544342456;30.4004784
15904;Загребский бульвар (47);59.827346418586;30.417387
15905;Камчатская улица (42, оборотная);59.90508291018507;30.3543758
15906;Автовский ДСК (оборотная/ст, 46);59.87060378778915;30.2734985
15907;Будапештская улица (47);59.82641265564305;30.4091911
15908;Минеральная улица (43);59.9651455964579;30.3686409
15909;Улица Чекистов (48);59.84289041220428;30.1756153
1591;КОЛОМЯЖСКИЙ ПР.,УГ. ПАРАШЮТНОЙ УЛ. [9, 127, 134, 172];60.01560804271699;30.2925205
15910;Церковь Святого Иова (42);59.90109267438243;30.3523083
15912;Улица Олеко Дундича (47);59.83008919585902;30.4054794
15913;Улица Жака Дюкло, 8 (50);60.01122142544106;30.3571014
15914;Петергофское шоссе (48);59.84773505780995;30.1757069
15916;"Метро ""Волковская"" (42)";59.89723898732972;30.3534813
15917;Улица Курчатова (34, 50);60.00834335179738;30.3625507
15918;Будапештская улица, 104 (47);59.83190500298059;30.4036388
15919;Минеральная улица (43);59.96626349008557;30.3813
1592;КОЛПИНО,ДОРОГА К ДСК;59.74943497054348;30.5506306
15920;Бухарестская улица, 1 (42);59.89058218856081;30.3600578
15921;Улица Рихарда Зорге (48);59.85126516630515;30.1759777
15924;Университет кино и телевидения (42);59.88752228602073;30.3631592
15925;Улица Жака Дюкло, 8 (50);60.01174375358605;30.3560619
15927;Улица Маршала Захарова (48);59.85802244411339;30.1768799
1593;ЛИГОВСКИЙ ПР.,283;59.89845851354647;30.3372631
15930;"Метро ""Бухарестская"" (42)";59.88329689584563;30.3674107
15932;Улица Маршала Тухачевского (43);59.95990090683052;30.4326324
15933;Университет профсоюзов (42);59.87887216864694;30.3732395
15934;Проспект Энергетиков (43);59.96022573245688;30.4409828
15935;Уманский переулок (43);59.96064287227478;30.4527874
15936;Индустриальный проспект (43);59.96170279408713;30.4605293
15937;Улица Маршала Захарова (48);59.85680829330059;30.1758862
15938;Улица Рихарда Зорге (48);59.8505481969231;30.1754379
15939;Петергофское шоссе (48);59.84803010551263;30.1752434
1594;КОМЕНДАНТСКИЙ ПР.,16 [127];60.01140577749325;30.2554779
15940;Экспериментальный завод (43);59.95880331457575;30.4636002
15941;Улица Чекистов (48);59.84181639741019;30.1752834
15942;Андреевский переулок (48);59.83872455116385;30.1753654
15943;Улица Отважных (48);59.83525832223537;30.1754379
15944;Ириновский проспект (43);59.95540430918793;30.467001
15945;Проспект Ударников (43);59.95092420213331;30.4717522
15946;Проспект Энтузиастов (43);59.94730205457903;30.475399
15947;Проспект Косыгина (43);59.94420290595875;30.477602
15948;Ленская улица (43);59.94121294498479;30.4766903
15949;Хасанская улица (43);59.93690200036589;30.476902
1595;КОМЕНДАНТСКИЙ ПР.,22 [127];60.01388418861547;30.2525749
15951;Проспект Солидарности, 19 Т (7, 23, 27, 65, А);59.9159859674246;30.4973526
15952;"Метро ""Ладожская"" T (8, 10, 59, 64)";59.93202242983056;30.4402027
15953;Улица Передовиков Т (8, 10, 59, 64);59.94171243090839;30.4667702
15954;Улица Дыбенко Т (7, 23, 27, 65, А);59.9121614018799;30.4997177
15955;Индустриальный проспект Т (8, 10, 59, 64);59.94446288982294;30.4771519
15956;Улица Осипенко T (8, 10, 59, 64);59.94486312415506;30.4843102
15957;Проспект Энтузиастов Т (10, 59, 64);59.9504351156159;30.4867573
15958;Товарищеский проспект Т (7, 23, А);59.90887404625188;30.4916
15959;Станция Ручьи Т (51, 57, 100);60.00643474015688;30.4359303
1596;КОМЕНДАНТСКИЙ ПР.,УГОЛ ШУВАЛОВСКОГО ПР.;60.02703782250243;30.2364616
15960;Проспект Наставников Т (8, 10, 59, 64);59.94494180213071;30.4896603
15961;Проспект Ударников Т (10, 59, 64);59.95396800494402;30.4830456
15963;"Метро ""Улица Дыбенко"" Т (7, 23, А)";59.90699394344492;30.4834309
15964;Ириновский проспект Т (10, 59, 64);59.9585160881705;30.4783363
15965;Проспект Науки, 73 Т (9, 38, 57);60.00469333469315;30.4313679
15967;Улица Карпинского Т (9, 38, 57);60.0066020468342;30.4235611
15969;Торговый центр Т (7, 23, А);59.90540484822254;30.4767075
1597;КОМСОМОЛЬСКАЯ ПЛОЩАДЬ;59.87497819569246;30.2580929
15970;Проспект Науки, 30 Т (9, 38, 57);60.00844236442257;30.4165096
15972;Заневская площадь Т (10, 23, 65);59.92800462887019;30.4125614
15973;Улица Кораблестроителей Т (конечная, 1, 6);59.95653620986269;30.234993
15974;Искровский проспект Т (7, 23, А);59.90365812565361;30.469347
15975;Улица Софьи Ковалевской Т (9, 38, 57);60.01020405673965;30.409481
15976;Дальневосточный проспект Т (7, 23, А);59.90130161707906;30.4593887
15977;Таллинская улица Т (10, 23, 65);59.92500293871766;30.4158707
15978;"Метро ""Академическая"" Т (9, 38, 57)";60.01301369347939;30.3981571
15979;Проспект Науки, 10 Т (9, 38, 57);60.01492192541731;30.3901005
1598;КОМСОМОЛЬСКАЯ ПЛОЩАДЬ;59.8769766560404;30.257206
15980;Улица Евдокима Огнева Т (7, 27, 39);59.89711566196102;30.460516
15981;Рижская улица Т (10, 23, 65);59.92262740647468;30.4190636
15982;Улица Обручевых Т (9, 38, 57);60.0163726541745;30.3816891
15983;Улица Крыленко Т (7, 27, 39);59.89417284582499;30.4619198
15984;Светлановский проспект Т (9, 55, 61);60.0180451800837;30.3674488
15986;"Парк ""Сосновка"" Т (9, 55, 61)";60.02537940151359;30.3661537
15987;Уральская улица T (1, 6);59.954761399746;30.2354107
15988;Улица Тельмана Т (7, 27, 39);59.88977355190168;30.4636307
15989;Рижская улица Т (10, 23, 65);59.92223032685925;30.4197674
15990;Улица Академика Байкова Т (9, 55, 61);60.02970613589289;30.3652897
15991;Проспект Луначарского Т (9, 55, 61);60.03578239839425;30.3659592
15992;Таллинская улица Т (10, 23, 65);59.92463327052214;30.4164963
15993;Улица Руднева Т (9, 20, 55);60.03746417586725;30.3596306
15994;Проспект Художников Т (9, 20, 55);60.03991334567796;30.3475819
15996;Народная улица Т (7, 27, 39);59.88229958428052;30.4693756
15997;Улица Есенина Т (9, 20, 55);60.04253286946764;30.3341198
15998;Улица Осипенко T (8, 10, 59, 64);59.94493838135304;30.4848633
15999;Универсам T (1, 6);59.9511430916635;30.2333069
16000;"Метро ""Ломоносовская"" Т (7, 27, 39)";59.87925262921969;30.4467602
16001;Проспект Энгельса Т (9, 20, 55);60.04373000451942;30.3292198
16002;"Метро ""Новочеркасская"" Т (10, 23, 65)";59.92825789474868;30.4125271
16003;Индустриальный проспект Т (8, 10, 59, 64);59.94486312415506;30.4788418
16004;Парк имени Бабушкина Т (7, 24);59.88241611019983;30.4451275
16005;Проспект Ударников Т (10, 59, 64);59.95436128491392;30.4824848
16006;"Метро ""Приморская"" T (1, 6)";59.94883441837285;30.2319412
16007;Улица Передовиков Т (8, 10, 59, 64);59.94171243090839;30.4661198
16008;"Метро ""Ладожская"" T (8, 10, 59, 64)";59.93223117791038;30.4402676
16009;Улица Нахимова T (1, 6);59.94304321626232;30.2310734
1601;КОННОГВАРДЕЙСКИЙ ПЕР. [70];59.93300113897665;30.2986794
16010;Улица Дудко Т (7, 24);59.88766278043899;30.4422283
16011;Малый проспект В.О. T (1, 6);59.93831851541631;30.2332039
16012;Площадь Репина Т (3, конечная);59.91764302819605;30.2789059
16013;Проспект Энтузиастов Т (10, 59, 64);59.95076687439059;30.486208
16014;Улица Крупской Т (7, 24);59.89136339511732;30.4400806
16015;Гаванская улица T (1, 6);59.9377471265293;30.2373295
16016;Проспект Косыгина Т (10, 59, 64);59.94557463992659;30.4908314
16017;Улица Шаврова T (18, 47, 55);60.02315439324076;30.2311783
16018;Улица Ткачей. ДК им. Крупской Т (7, 24);59.89450516757284;30.4372692
16019;Шкиперский проток T (1, 6);59.93406194494742;30.2389698
1602;КОНСТАНТИНОВСКИЙ ДВОРЕЦ [200, 210, 359];59.85162879080573;30.0621414
16020;Дом детского творчества T (18, 47, 55);60.0214138682388;30.233242
16022;Средний проспект T (1, 6);59.93195740966854;30.2400513
16023;Невский рынок Т (7, 24);59.90160304029261;30.425642
16024;28-29-я линии T (1, 6);59.93434253956244;30.2489796
16025;Школа T (18, 47, 55);60.01757415073476;30.2377701
16026;Невский завод Т (7, 24);59.9043739505234;30.4212093
16027;22-23-я линии Т (1, 6);59.93703202117746;30.2578106
16028;Долгоозёрная улица T (18, 47, 55);60.01400025290193;30.24193
1603;КОНТОРСКАЯ УЛ. [15, 22, 136, 174];59.94530440256186;30.4134865
16030;Музей городского транспорта T (6, 40);59.93853406675029;30.2628708
16031;Торговый центр T (18, 47, 55);60.01139212182095;30.2450104
16032;Площадь Тургенева Т (3, 16, 41);59.91790322030618;30.2890472
16034;Улица Ильюшина T (18, 47, 55);60.00887255376565;30.2479744
16035;Лахтинский разлив Т (конечная, 19, 48);59.98986377278474;30.1892185
16037;12-13-я линии T (6, 40);59.94080240297558;30.2707024
16038;Камышовая улица T (18);60.00625377483876;30.2472706
16039;Лахтинский разлив Т (19, 48);59.99003457941139;30.1934566
1604;КОНЮШЕННАЯ УЛ.;59.72252294828369;30.4140091
16040;Лермонтовский проспект Т (3, 16);59.91950198757554;30.2945385
16041;"Метро ""Василеостровская"" T (6, 40)";59.94302953236594;30.2783241
16042;Богатырский проспект T (18);60.0028323196618;30.2454605
16043;Беговая улица Т (19, 48);59.98873984319575;30.2034664
16045;1-я и Кадетская линии T (6, 40);59.94507521218445;30.2853222
16046;Ситцевая улица T (18);59.99868307433864;30.2442417
16047;Яхтенная улица Т (19, 48);59.98721274092033;30.2146912
16049;"Метро ""Озерки"" Т (9, 20, 21, 58)";60.03647831669945;30.322691
16051;"Торговый комплекс ""Лента"" Т (19, 48)";59.98574364986442;30.2259808
16052;"Метро ""Старая Деревня"" T (18)";59.99024296230203;30.2542992
16053;Поклонная гора Т (9, 20, 21);60.03187270243542;30.320282
16055;Улица Оптиков T (18);59.99503540664036;30.2537365
16056;Площадь Александра Невского Т (65);59.92582440885118;30.3883896
16057;Пенсионный фонд Т (9, 20, 21);60.02382327650627;30.3194008
16059;Зверинская улица T (6, 40);59.9516492681656;30.3059254
1606;КРАСНАЯ МЫЗА [487, 487, 487а];59.59798796882078;29.4474316
16060;Ситцевая улица T (18);59.99827324409063;30.2444019
16061;Рашетова улица Т (9, 20, 21);60.02104527471297;30.3204803
16062;Троицкий просп. Т (16);59.91586271166494;30.2992821
16063;Заневская площадь Т (7, 10, 23);59.93006492490348;30.4111309
16064;Стародеревенская улица Т (19, 21, 48);59.98442482886374;30.2443447
16065;Введенская улица T (6, 40);59.95478191832512;30.3077927
16066;Богатырский проспект T (18);60.0021835008142;30.2453308
16067;1-я Красноармейская улица Т (16);59.9159551535276;30.3094082
16068;Республиканская улица Т (7, 10, 23);59.93335018210564;30.4076672
16069;Администрация Приморского района Т (19);59.98512866215398;30.2541733
1607;КРАСНАЯ УЛ.;59.74086595603281;30.604641
16070;Камышовая улица T (18);60.00576209048364;30.247179
16071;Московский просп. Т  (16);59.91604417137423;30.3175716
16072;Сытный рынок T (6, 40);59.95637890875878;30.3110447
16073;Проспект Авиаконструкторов T (18);60.0080531406708;30.2483673
16074;Витебский вокзал Т (16);59.92055295536597;30.3285713
16075;Улица Помяловского Т (7, 10, 23);59.93663511394509;30.4080811
16076;Ж/д платформа Старая Деревня Т (19);59.98785160436024;30.2529984
16077;"Метро ""Горьковская"" T (6, 40)";59.95653620986269;30.3193302
16078;"Метро ""Звенигородская"" Т (16)";59.9229320591652;30.3343964
16079;Торговый центр T (18, 47, 55);60.01137505222261;30.2452297
1608;КРАСНОГВАРДЕЙСКАЯ ПЛ.;59.94249927703199;30.4141693
16081;Администрация Приморского района Т (19);59.98549765615144;30.2540264
16082;Красногвардейская площадь Т (7, 10, 23);59.94135663348715;30.4086609
16083;Троицкая площадь T (6, 40);59.95452201538424;30.3267307
16084;Долгоозёрная улица T (18, 47, 55);60.0142221393743;30.241888
16085;Улица Марата Т (16);59.91994702685906;30.3391991
16086;"Метро ""Удельная"" Т (оборотная, 9)";60.01674471317472;30.3185921
16087;Горохов переулок Т (19, 21, 48);59.9844111620498;30.2482853
16088;Улица Чапаева T (6, 40);59.9574902592553;30.3329601
16089;Среднеохтинский проспект Т (7, 10, 23);59.94424053532843;30.4129543
1609;КРАСНОГРАДСКИЙ ПЕР. [70];59.92533152921168;30.3078899
16090;Школа T (18, 47, 55);60.01753319134374;30.2380409
16091;Социалистическая улица Т (16);59.92118283541893;30.3446045
16092;Стародеревенская улица Т (19, 21, 48);59.98455466331487;30.2436981
16093;"Гостиница ""Санкт-Петербург"" T (6)";59.9580886633153;30.3425045
16094;Шепетовская улица Т (7, 10, 23);59.94685396160248;30.4142628
16095;Дом детского творчества T (18, 47, 55);60.02139339092854;30.2334709
16096;Разъезжая улица Т (16);59.92255209863688;30.3494606
16097;Рашетова улица Т (9, 20, 21);60.02056746217257;30.3208809
16099;Улица Шаврова T (18, 47, 55);60.02289502669944;30.231781
1610;КРАСНОПУТИЛОВСКАЯ УЛ. [13, 13А, 31, 187];59.84872997564888;30.3150501
16100;Большая Пороховская улица, 21 Т (7, 10, 30);59.95341056533897;30.4163284
16102;Пенсионный фонд Т (9, 20, 21);60.02344105915511;30.3197289
16103;"Метро ""Лиговский проспект"" Т (16,25*,49*)";59.92139507491775;30.3544159
16104;Поклонная гора Т (9, 20, 21);60.03177034815852;30.3204327
16106;Большой Сампсониевский просп. T (6);59.9591110543899;30.347084
16107;"Торговый комплекс ""Лента"" Т (19, 48)";59.98578464863885;30.2263699
16108;"Метро ""Озерки"" Т (9, 20, 21, 58)";60.03693543152938;30.3232288
1611;КРАСНОПУТИЛОВСКАЯ УЛ., 95;59.85330278442477;30.3024864
16110;Улица Академика Лебедева Т (6);59.95814337400445;30.3524494
16111;Проспект Луначарского Т (9, 20, 21, 58);60.04347079947138;30.3280201
16112;Проспект Культуры T (конечная, 20, 58);60.05286909223268;30.3779907
16113;Яхтенная улица Т (19, 48);59.98740405960764;30.2139988
16114;Большая Пороховская улица, 46 Т (7, 10, 30);59.95317117121965;30.4302311
16115;Курская улица Т (16,25*,49*);59.91132932075581;30.3480206
16116;Улица Комсомола T (6, 20);59.95607456319869;30.3513126
16117;Улица Есенина Т (9, 20, 55);60.04247147675666;30.3353024
16118;Проспект Культуры, 26 T (20, 58);60.04881819685156;30.3773556
16119;Беговая улица Т (19, 48);59.98856219733578;30.204319
1612;КРАСНОПУТИЛОВСКАЯ УЛ. 67 [72];59.86102333299031;30.2875996
16121;Проспект Энергетиков Т (7, 10, 30);59.95302411397469;30.4359589
16122;Проспект Художников Т (9, 20, 55);60.04007025008822;30.3463287
16123;Площадь Ленина T (к/ст, 6, 20);59.95531539692318;30.3545914
16124;Проспект Просвещения T (20, 58);60.04539432529941;30.3743095
16125;Улица Руднева Т (9, 20, 55);60.03745053095849;30.3592205
16126;Лахтинский разлив Т (19, 48);59.9899150148653;30.1938763
16127;Тамбовская улица Т (16,25*,49*);59.90683298251966;30.3486214
16128;Салтыковская дорога Т (7, 10, 30);59.95296939483325;30.4406738
16129;Проспект Культуры, 11 T (20, 61);60.0407217365139;30.3700924
1613;КРАСНОПУТИЛОВСКАЯ УЛ. 85 [72];59.85526824731348;30.2988224
16130;Финляндский вокзал Т (6, 20);59.95701494775839;30.3557796
16131;Проспект Культуры Т (9, 20, 55);60.03618152980356;30.3654194
16132;Днепропетровская улица Т (16, 25, 49);59.90587405019831;30.3525524
16133;Проспект Луначарского T (20, 61);60.03647149404214;30.3663654
16134;Бокситогорская улица Т (7, 10, 30);59.95292151551038;30.4492092
16135;Большой Сампсониевский просп. T (6);59.95926150392548;30.3467007
16136;Улица Академика Байкова Т (9, 55, 61);60.02976414031266;30.3650875
16137;"Парк ""Сосновка"" Т (9, 55, 61)";60.0254510634003;30.365942
16138;Расстанный переулок Т (16);59.90572335831567;30.356369
16139;Манчестерская улица T (20, 21);60.01108145375199;30.3245201
16140;"Гостиница ""Санкт-Петербург"" T (6)";59.95814337400445;30.3413773
16141;Улица Передовиков Т (7, 10, 30);59.95448097789145;30.4618645
16142;Проспект Науки Т (9, 38, 57);60.01647505615185;30.3694401
16143;"Объединение ""Светлана"" T (20, 21)";60.00605232171611;30.3265209
16144;Улица Чапаева T (6);59.95782194741203;30.3338242
16145;Индустриальный проспект Т (7, 10, 30);59.95564368717657;30.4661999
16146;Улица Обручевых Т (9, 38, 57);60.01637948098284;30.3810139
16147;Старообрядческий мост  Т (16);59.90474384440924;30.363781
16148;Проспект Пархоменко T (20, 21, 40);60.00008328937865;30.3289051
1615;КРАСНОСЕЛЬСКОЕ ШОССЕ,32 [488];59.82223443249823;30.0734768
16150;Троицкая площадь T (6, 40);59.95475114045168;30.3268795
16151;Проспект Наставников Т (7, 10, 30);59.95859815311176;30.4774761
16152;Сердобольская улица T (20, 48);59.99406194418864;30.3312988
16153;"Метро ""Горьковская"" Т (6, 40)";59.95659092311509;30.319479
16154;1-й Муринский проспект T (20, 48);59.98840504828017;30.3345089
16155;Улица Лазо Т (7, 30, 59, 64);59.95995561452744;30.4820862
16157;"Метро ""Академическая"" Т (9, 38, 57)";60.01315707072546;30.3972759
16158;Сытный рынок T (6, 40);59.95660460141408;30.3117275
16159;Улица Коммуны Т (7, 30, 59, 64);59.9617814320962;30.4882679
1616;КРАСНОСЕЛЬСКОЕ ШОССЕ,40 [20, 145, 165, 482, 482а, 482в, 484, 484б];59.7886385551134;30.1432056
16160;Улица Софьи Ковалевской Т (9, 38, 57);60.01044645279431;30.4080544
16161;Кантемировская улица T (20, 38);59.98535415897457;30.3418274
16162;Введенская улица T (6, 40);59.95506233763323;30.308012
16163;Проспект Науки, 45 Т (9, 38, 57);60.008527719896;30.4156666
16164;Улица Александра Матросова T (20, 38);59.98162301400854;30.3436375
16165;Улица Коммуны Т (7, 30, 59, 64);59.96169595599056;30.487711
16168;Литовская улица T (20, 38);59.97676027730235;30.3443146
16169;Приморский проспект Т (к/ст 21);59.98403190571158;30.2409801
16170;Проспект Науки, 73 Т (9, 38, 57);60.00446796963811;30.4317646
16171;Волковский просп. Т (16);59.90134272040562;30.3660202
16172;Улица Лазо Т (7, 30, 59, 64);59.96025992444283;30.4828587
16173;"Метро ""Выборгская"" Т (20, оборотная - 38)";59.97089533840411;30.34832
16175;Проспект Наставников Т (7, 30, 59, 64);59.95895376550864;30.4783707
16179;Литовская улица T (20, 38);59.97671243235313;30.3445702
1618;ГМА ИМ. АДМИРАЛА С.О. МАКАРОВА;59.85193066473112;30.0798664
16180;Индустриальный проспект Т (7, 10, 30);59.95604720615749;30.4673672
16181;Карбюраторный завод Т (конечная);59.90085975310561;30.3716927
16182;Средний проспект T (6, 40);59.94593039208602;30.2854347
16183;Улица Покрышева Т (21, 48);59.98387473514473;30.2642193
16184;Улица Александра Матросова T (20, 38);59.98189295527502;30.3432903
16185;Улица Передовиков Т (7, 10, 30);59.95434076607437;30.4608097
16186;"Метро ""Василеостровская"" T (6, 40)";59.94324163212508;30.2787514
16187;Кантемировская улица T (20, 38);59.98581198112692;30.3418427
16188;Бокситогорская улица Т (7, 10, 30);59.95303437380365;30.4485302
16189;Серебряков переулок Т (21, 48);59.98375514834394;30.2697525
1619;КРОНШТАДТСКАЯ УЛ. [2];59.87277735079923;30.2563725
16191;12-13-я линии T (6, 40);59.9410247805282;30.271183
16192;Проспект Энергетиков Т (7, 10, 30);59.95314039185028;30.437809
16194;Музей городского транспорта T (6, 40);59.93886252323174;30.2637386
16195;Улица Оскаленко Т (21, 48);59.98441799545748;30.2775021
16196;Сердобольская улица T (20);59.99434544673576;30.331419
16197;Улица Самойловой Т (16);59.90047268913578;30.3714504
16198;Большая Пороховская улица, 46 Т (7, 10, 30);59.95324982947817;30.4309692
16199;Проспект Пархоменко T (20, 21, 40);59.99983398713517;30.3291721
1620;КРОНШТАДТСКАЯ ПЛОЩАДЬ [20, 200, 210];59.85096328634277;30.2345905
16200;22-23-я линии T (6, 40);59.93742550210684;30.258791
16201;Мгинская улица Т (16*);59.90077411987255;30.3701324
16202;"Объединение ""Светлана"" T (20, 21)";60.00546844217395;30.3269424
16204;Улица Академика Шиманского Т (21, 48);59.98520382793154;30.2870598
16205;Среднеохтинский проспект Т (7, 10, 30);59.95350974239609;30.4154415
16206;28-29-я линии T (1, 6);59.93476342703408;30.2498188
16207;Манчестерская улица T (20, 21);60.01076054081368;30.3248215
16208;Карельский переулок Т (21, 48);59.98576073269327;30.2947006
16209;Гаванская улица Т (1, 6);59.93186501237692;30.2407627
1621;КРОНШТАДТСКАЯ ПЛОЩАДЬ [142];59.85200613278458;30.2406731
16210;Шепетовская улица Т (7, 10, 23);59.94775698247349;30.4142551
16211;Енотаевская улица T (20, 21);60.01665596553661;30.3224468
16212;Проспект Культуры, 11 T (20, 61);60.04059553334083;30.3701839
16213;Красногвардейская площадь Т (7, 10, 23);59.94398739147326;30.4126205
16214;Шкиперский проток T (1, 6);59.93317908299156;30.2396278
16215;"Метро ""Чёрная речка"" Т (21, 48)";59.98651236843398;30.3003044
16216;Проспект Просвещения T (20, 61);60.04457581736602;30.3737698
16217;Новочеркасский проспект Т (7, 10, 23);59.94041238335867;30.4084663
16218;Проспект Культуры, 26 T (20, 58);60.04908417997733;30.3778
16219;Малый проспект В.О. T (1, 6);59.93749735464202;30.2379417
1622;КУБИНСКАЯ УЛ. [72];59.85846144818947;30.2933846
16220;Волковский просп. Т (16*);59.90168524614877;30.3645344
16221;"Гостиница ""Выборгская"" Т (21, 40, 48)";59.98731864961603;30.3054981
16222;Улица Помяловского Т (7, 10, 23);59.93591314119726;30.4077435
16224;Наличная улица T (1, 6);59.93756920702151;30.234642
16225;Старообрядческий мост Т (16*);59.9044527245666;30.3646202
16226;Улица Антонова-Овсеенко Т (23, 27, 39, А);59.90493906452119;30.4540958
16227;Республиканская улица Т (7, 10, 23);59.93396270969829;30.4070625
16228;Улица Нахимова T (1, 6);59.9424308563712;30.2315311
16229;"Торговый комплекс ""Лента"" Т (23, 27, 39, А)";59.90812407264988;30.4482841
1623;КУЗНЕЦОВСКАЯ УЛ. [3, 50];59.87243795521061;30.32061
